[{"id": "x0k5kFArHLijdY8-NEQ7Xg", "alias": "bengal-tiger-indian-food-new-york", "name": "Bengal Tiger Indian Food", "image_url": "https://s3-media2.fl.yelpcdn.com/bphoto/65Q6vtiAqLDVFLrvu0ZdZA/o.jpg", "is_closed": false, "url": "https://www.yelp.com/biz/bengal-tiger-indian-food-new-york?adjust_creative=dGXDlVbzOmyJ2a13MnYdVw&utm_campaign=yelp_api_v3&utm_medium=api_v3_business_search&utm_source=dGXDlVbzOmyJ2a13MnYdVw", "review_count": 2326, "categories": [{"alias": "indpak", "title": "Indian"}], "rating": 4.5, "coordinates": {"latitude": 40.763167, "longitude": -73.977131}, "transactions": ["delivery", "pickup"], "price": "$$", "location": {"address1": "58 W 56th St", "address2": "Fl 2", "address3": "", "city": "New York", "zip_code": "10019", "country": "US", "state": "NY", "display_address": ["58 W 56th St", "Fl 2", "New York, NY 10019"]}, "phone": "+12122652703", "display_phone": "(212) 265-2703", "distance": 347.92812342067185}, {"id": "HEs6llkn3wIP1ATXeIZQew", "alias": "pippali-new-york", "name": "Pippali", "image_url": "https://s3-media1.fl.yelpcdn.com/bphoto/B9NtMkxa0e6CT_vk16k32w/o.jpg", "is_closed": false, "url": "https://www.yelp.com/biz/pippali-new-york?adjust_creative=dGXDlVbzOmyJ2a13MnYdVw&utm_campaign=yelp_api_v3&utm_medium=api_v3_business_search&utm_source=dGXDlVbzOmyJ2a13MnYdVw", "review_count": 896, "categories": [{"alias": "indpak", "title": "Indian"}], "rating": 4.0, "coordinates": {"latitude": 40.74233, "longitude": -73.98331}, "transactions": ["delivery", "pickup", "restaurant_reservation"], "price": "$$", "location": {"address1": "129 E 27th St", "address2": "", "address3": "", "city": "New York", "zip_code": "10016", "country": "US", "state": "NY", "display_address": ["129 E 27th St", "New York, NY 10016"]}, "phone": "+12126891999", "display_phone": "(212) 689-1999", "distance": 2027.80061226141}, {"id": "Xqk91WuhMeYS4pedccUYgA", "alias": "gazab-new-york", "name": "Gazab", "image_url": "https://s3-media3.fl.yelpcdn.com/bphoto/AuOMEQT6_UKD95-jNcYDLA/o.jpg", "is_closed": false, "url": "https://www.yelp.com/biz/gazab-new-york?adjust_creative=dGXDlVbzOmyJ2a13MnYdVw&utm_campaign=yelp_api_v3&utm_medium=api_v3_business_search&utm_source=dGXDlVbzOmyJ2a13MnYdVw", "review_count": 254, "categories": [{"alias": "indpak", "title": "Indian"}], "rating": 4.5, "coordinates": {"latitude": 40.72191, "longitude": -73.98666}, "transactions": ["delivery", "pickup"], "location": {"address1": "179 Essex St", "address2": "", "address3": null, "city": "New York", "zip_code": "10002", "country": "US", "state": "NY", "display_address": ["179 Essex St", "New York, NY 10002"]}, "phone": "+19173882664", "display_phone": "(917) 388-2664", "distance": 4313.1401359991}, {"id": "objNX6cuj1JyUijFjw21Qw", "alias": "bombay-bistro-new-york-2", "name": "Bombay Bistro", "image_url": "https://s3-media3.fl.yelpcdn.com/bphoto/FBDqyxGA51BZKMAoVr_Raw/o.jpg", "is_closed": false, "url": "https://www.yelp.com/biz/bombay-bistro-new-york-2?adjust_creative=dGXDlVbzOmyJ2a13MnYdVw&utm_campaign=yelp_api_v3&utm_medium=api_v3_business_search&utm_source=dGXDlVbzOmyJ2a13MnYdVw", "review_count": 276, "categories": [{"alias": "indpak", "title": "Indian"}, {"alias": "cocktailbars", "title": "Cocktail Bars"}], "rating": 4.5, "coordinates": {"latitude": 40.73136, "longitude": -74.00253}, "transactions": ["delivery", "pickup"], "price": "$$", "location": {"address1": "31 Cornelia St", "address2": "", "address3": null, "city": "New York", "zip_code": "10014", "country": "US", "state": "NY", "display_address": ["31 Cornelia St", "New York, NY 10014"]}, "phone": "+16468503719", "display_phone": "(646) 850-3719", "distance": 3793.7375603213477}, {"id": "z2VXX7wGl8XZ6_oo9W3koA", "alias": "patiala-indian-grill-new-york", "name": "Patiala Indian Grill", "image_url": "https://s3-media2.fl.yelpcdn.com/bphoto/cFmz8IrIG6JtI6FN87ULZQ/o.jpg", "is_closed": false, "url": "https://www.yelp.com/biz/patiala-indian-grill-new-york?adjust_creative=dGXDlVbzOmyJ2a13MnYdVw&utm_campaign=yelp_api_v3&utm_medium=api_v3_business_search&utm_source=dGXDlVbzOmyJ2a13MnYdVw", "review_count": 624, "categories": [{"alias": "indpak", "title": "Indian"}], "rating": 4.5, "coordinates": {"latitude": 40.7534700430117, "longitude": -73.99595067259492}, "transactions": ["delivery", "pickup"], "price": "$$", "location": {"address1": "371 W 34th St", "address2": "", "address3": "", "city": "New York", "zip_code": "10001", "country": "US", "state": "NY", "display_address": ["371 W 34th St", "New York, NY 10001"]}, "phone": "+12125648255", "display_phone": "(212) 564-8255", "distance": 1650.1055071003714}, {"id": "qhXIW0LDT4XsoN2IE6dZHg", "alias": "ahimsa-new-york-5", "name": "Ahimsa", "image_url": "https://s3-media2.fl.yelpcdn.com/bphoto/5seQWNcu8rGqYXf_EBUC8g/o.jpg", "is_closed": false, "url": "https://www.yelp.com/biz/ahimsa-new-york-5?adjust_creative=dGXDlVbzOmyJ2a13MnYdVw&utm_campaign=yelp_api_v3&utm_medium=api_v3_business_search&utm_source=dGXDlVbzOmyJ2a13MnYdVw", "review_count": 218, "categories": [{"alias": "indpak", "title": "Indian"}, {"alias": "vegetarian", "title": "Vegetarian"}, {"alias": "kosher", "title": "Kosher"}], "rating": 4.5, "coordinates": {"latitude": 40.7478959, "longitude": -73.9758638}, "transactions": ["delivery", "pickup"], "price": "$$", "location": {"address1": "204 E 38th St", "address2": "", "address3": null, "city": "New York", "zip_code": "10016", "country": "US", "state": "NY", "display_address": ["204 E 38th St", "New York, NY 10016"]}, "phone": "+12122282022", "display_phone": "(212) 228-2022", "distance": 1387.696124211735}, {"id": "t6PzD4uzBOfyCLcd_lT8cQ", "alias": "sathi-new-york", "name": "Sathi", "image_url": "https://s3-media2.fl.yelpcdn.com/bphoto/Dn6S00Ly7iatO434EMPqCw/o.jpg", "is_closed": false, "url": "https://www.yelp.com/biz/sathi-new-york?adjust_creative=dGXDlVbzOmyJ2a13MnYdVw&utm_campaign=yelp_api_v3&utm_medium=api_v3_business_search&utm_source=dGXDlVbzOmyJ2a13MnYdVw", "review_count": 295, "categories": [{"alias": "indpak", "title": "Indian"}, {"alias": "himalayan", "title": "Himalayan/Nepalese"}], "rating": 4.5, "coordinates": {"latitude": 40.73621, "longitude": -73.98528}, "transactions": ["delivery", "pickup", "restaurant_reservation"], "price": "$$", "location": {"address1": "216 3rd Ave", "address2": null, "address3": "", "city": "New York", "zip_code": "10003", "country": "US", "state": "NY", "display_address": ["216 3rd Ave", "New York, NY 10003"]}, "phone": "+12122603700", "display_phone": "(212) 260-3700", "distance": 2724.959030045109}, {"id": "9pMhRYYgV7E9L7pzECtJKA", "alias": "the-drunken-munkey-ues-new-york", "name": "The Drunken Munkey - UES", "image_url": "https://s3-media3.fl.yelpcdn.com/bphoto/GNYXuGP2q-hHPR-vJXivDw/o.jpg", "is_closed": false, "url": "https://www.yelp.com/biz/the-drunken-munkey-ues-new-york?adjust_creative=dGXDlVbzOmyJ2a13MnYdVw&utm_campaign=yelp_api_v3&utm_medium=api_v3_business_search&utm_source=dGXDlVbzOmyJ2a13MnYdVw", "review_count": 1351, "categories": [{"alias": "indpak", "title": "Indian"}, {"alias": "cocktailbars", "title": "Cocktail Bars"}], "rating": 4.5, "coordinates": {"latitude": 40.78098, "longitude": -73.94751}, "transactions": ["delivery", "pickup", "restaurant_reservation"], "price": "$$", "location": {"address1": "338 E 92nd St", "address2": null, "address3": "", "city": "New York", "zip_code": "10128", "country": "US", "state": "NY", "display_address": ["338 E 92nd St", "New York, NY 10128"]}, "phone": "+16468468986", "display_phone": "(646) 846-8986", "distance": 3466.9693248006906}, {"id": "jf3JRaxUYU93x8LFU-8gkA", "alias": "gupshup-new-york", "name": "GupShup", "image_url": "https://s3-media2.fl.yelpcdn.com/bphoto/zaK7en1p1L6ipl5eyxIXpw/o.jpg", "is_closed": false, "url": "https://www.yelp.com/biz/gupshup-new-york?adjust_creative=dGXDlVbzOmyJ2a13MnYdVw&utm_campaign=yelp_api_v3&utm_medium=api_v3_business_search&utm_source=dGXDlVbzOmyJ2a13MnYdVw", "review_count": 687, "categories": [{"alias": "indpak", "title": "Indian"}, {"alias": "cocktailbars", "title": "Cocktail Bars"}, {"alias": "breakfast_brunch", "title": "Breakfast & Brunch"}], "rating": 4.0, "coordinates": {"latitude": 40.7368323318866, "longitude": -73.9877132715179}, "transactions": ["delivery", "pickup"], "price": "$$$", "location": {"address1": "115 E18th St", "address2": null, "address3": "", "city": "New York", "zip_code": "10003", "country": "US", "state": "NY", "display_address": ["115 E18th St", "New York, NY 10003"]}, "phone": "+12125187313", "display_phone": "(212) 518-7313", "distance": 2706.2069672546704}, {"id": "1_pK5aQ47atF50oAKHADhA", "alias": "indian-accent-new-york", "name": "Indian Accent", "image_url": "https://s3-media2.fl.yelpcdn.com/bphoto/tnHSNwNMyTQVFgKtybK9SA/o.jpg", "is_closed": false, "url": "https://www.yelp.com/biz/indian-accent-new-york?adjust_creative=dGXDlVbzOmyJ2a13MnYdVw&utm_campaign=yelp_api_v3&utm_medium=api_v3_business_search&utm_source=dGXDlVbzOmyJ2a13MnYdVw", "review_count": 716, "categories": [{"alias": "indpak", "title": "Indian"}], "rating": 4.5, "coordinates": {"latitude": 40.7643344624229, "longitude": -73.9787312885132}, "transactions": ["delivery", "pickup"], "price": "$$$$", "location": {"address1": "123 W 56th St", "address2": "", "address3": "", "city": "New York", "zip_code": "10019", "country": "US", "state": "NY", "display_address": ["123 W 56th St", "New York, NY 10019"]}, "phone": "+12128428070", "display_phone": "(212) 842-8070", "distance": 458.4854192654005}, {"id": "3hlAeWgSKAnSQ1tg8k8D8g", "alias": "alachi-masala-new-york-3", "name": "Alachi Masala", "image_url": "https://s3-media2.fl.yelpcdn.com/bphoto/6h_KJ0SWdJKytw58coTezw/o.jpg", "is_closed": false, "url": "https://www.yelp.com/biz/alachi-masala-new-york-3?adjust_creative=dGXDlVbzOmyJ2a13MnYdVw&utm_campaign=yelp_api_v3&utm_medium=api_v3_business_search&utm_source=dGXDlVbzOmyJ2a13MnYdVw", "review_count": 282, "categories": [{"alias": "indpak", "title": "Indian"}], "rating": 4.0, "coordinates": {"latitude": 40.786196, "longitude": -73.976448}, "transactions": ["delivery", "pickup"], "price": "$", "location": {"address1": "Ave", "address2": "", "address3": "", "city": "New York", "zip_code": "10024", "country": "US", "state": "NY", "display_address": ["Ave", "New York, NY 10024"]}, "phone": "+12128740737", "display_phone": "(212) 874-0737", "distance": 2891.00138593623}, {"id": "izRJeBfDQYJmd6ibIQ6Mfg", "alias": "mughlai-indian-cuisine-new-york-4", "name": "Mughlai Indian Cuisine", "image_url": "https://s3-media4.fl.yelpcdn.com/bphoto/pY33lEN22h9TnvJxaKJSVg/o.jpg", "is_closed": false, "url": "https://www.yelp.com/biz/mughlai-indian-cuisine-new-york-4?adjust_creative=dGXDlVbzOmyJ2a13MnYdVw&utm_campaign=yelp_api_v3&utm_medium=api_v3_business_search&utm_source=dGXDlVbzOmyJ2a13MnYdVw", "review_count": 623, "categories": [{"alias": "indpak", "title": "Indian"}], "rating": 4.5, "coordinates": {"latitude": 40.78002, "longitude": -73.94978}, "transactions": ["delivery", "pickup"], "price": "$$", "location": {"address1": "1724 2nd Ave", "address2": "", "address3": "", "city": "New York", "zip_code": "10128", "country": "US", "state": "NY", "display_address": ["1724 2nd Ave", "New York, NY 10128"]}, "phone": "+12127226262", "display_phone": "(212) 722-6262", "distance": 3269.3045513976203}, {"id": "_7BGw3YFNOTzP1Www3zB7g", "alias": "mughlai-grill-new-york", "name": "Mughlai Grill", "image_url": "https://s3-media3.fl.yelpcdn.com/bphoto/R0MIGOkyV5I4sDlZLRVK3A/o.jpg", "is_closed": false, "url": "https://www.yelp.com/biz/mughlai-grill-new-york?adjust_creative=dGXDlVbzOmyJ2a13MnYdVw&utm_campaign=yelp_api_v3&utm_medium=api_v3_business_search&utm_source=dGXDlVbzOmyJ2a13MnYdVw", "review_count": 531, "categories": [{"alias": "indpak", "title": "Indian"}], "rating": 4.5, "coordinates": {"latitude": 40.7210905, "longitude": -73.9840446}, "transactions": ["delivery", "pickup", "restaurant_reservation"], "price": "$$", "location": {"address1": "6 Clinton St", "address2": "", "address3": null, "city": "New York", "zip_code": "10002", "country": "US", "state": "NY", "display_address": ["6 Clinton St", "New York, NY 10002"]}, "phone": "+12125332828", "display_phone": "(212) 533-2828", "distance": 4375.434923240767}, {"id": "kS2CP48K66yL2TwIhUqy_A", "alias": "tamarind-new-york-4", "name": "Tamarind", "image_url": "https://s3-media3.fl.yelpcdn.com/bphoto/0zgXNwL18E52i95zE7CwvQ/o.jpg", "is_closed": false, "url": "https://www.yelp.com/biz/tamarind-new-york-4?adjust_creative=dGXDlVbzOmyJ2a13MnYdVw&utm_campaign=yelp_api_v3&utm_medium=api_v3_business_search&utm_source=dGXDlVbzOmyJ2a13MnYdVw", "review_count": 1133, "categories": [{"alias": "indpak", "title": "Indian"}], "rating": 4.0, "coordinates": {"latitude": 40.71909, "longitude": -74.00892}, "transactions": ["delivery", "pickup"], "price": "$$$", "location": {"address1": "99 Hudson St", "address2": "", "address3": "", "city": "New York", "zip_code": "10013", "country": "US", "state": "NY", "display_address": ["99 Hudson St", "New York, NY 10013"]}, "phone": "+12127759000", "display_phone": "(212) 775-9000", "distance": 5249.920396267827}, {"id": "Txm8KtUh9Mn2E7980jTr5g", "alias": "dhamaka-new-york", "name": "Dhamaka", "image_url": "https://s3-media1.fl.yelpcdn.com/bphoto/-Sp5A0npkHkp1aq-2lrcUg/o.jpg", "is_closed": false, "url": "https://www.yelp.com/biz/dhamaka-new-york?adjust_creative=dGXDlVbzOmyJ2a13MnYdVw&utm_campaign=yelp_api_v3&utm_medium=api_v3_business_search&utm_source=dGXDlVbzOmyJ2a13MnYdVw", "review_count": 435, "categories": [{"alias": "indpak", "title": "Indian"}], "rating": 4.0, "coordinates": {"latitude": 40.7180658, "longitude": -73.9881304}, "transactions": ["delivery"], "price": "$$$", "location": {"address1": "119 Delancey St", "address2": "Essex Market, Store  34", "address3": null, "city": "New York", "zip_code": "10002", "country": "US", "state": "NY", "display_address": ["119 Delancey St", "Essex Market, Store  34", "New York, NY 10002"]}, "phone": "+12122048616", "display_phone": "(212) 204-8616", "distance": 4756.470541125975}, {"id": "xWVHj2XNcxEg79Nkb5Zb6Q", "alias": "semma-new-york-2", "name": "Semma", "image_url": "https://s3-media3.fl.yelpcdn.com/bphoto/pZpL-NIOCw2P_pXXA8JLCw/o.jpg", "is_closed": false, "url": "https://www.yelp.com/biz/semma-new-york-2?adjust_creative=dGXDlVbzOmyJ2a13MnYdVw&utm_campaign=yelp_api_v3&utm_medium=api_v3_business_search&utm_source=dGXDlVbzOmyJ2a13MnYdVw", "review_count": 349, "categories": [{"alias": "indpak", "title": "Indian"}, {"alias": "wine_bars", "title": "Wine Bars"}, {"alias": "cocktailbars", "title": "Cocktail Bars"}], "rating": 4.0, "coordinates": {"latitude": 40.736054206102615, "longitude": -74.0005639}, "transactions": [], "price": "$$$$", "location": {"address1": "60 Greenwich Ave", "address2": "", "address3": null, "city": "New York", "zip_code": "10011", "country": "US", "state": "NY", "display_address": ["60 Greenwich Ave", "New York, NY 10011"]}, "phone": "+12123738900", "display_phone": "(212) 373-8900", "distance": 3266.8038740954275}, {"id": "ut-560tVcs2g-ZU0Y_qqHQ", "alias": "saar-indian-bistro-new-york", "name": "Saar Indian Bistro", "image_url": "https://s3-media4.fl.yelpcdn.com/bphoto/9r8vQTeTT_27_Tv3gz5ZJw/o.jpg", "is_closed": false, "url": "https://www.yelp.com/biz/saar-indian-bistro-new-york?adjust_creative=dGXDlVbzOmyJ2a13MnYdVw&utm_campaign=yelp_api_v3&utm_medium=api_v3_business_search&utm_source=dGXDlVbzOmyJ2a13MnYdVw", "review_count": 396, "categories": [{"alias": "indpak", "title": "Indian"}], "rating": 4.5, "coordinates": {"latitude": 40.7626659, "longitude": -73.9847093}, "transactions": ["delivery", "pickup"], "price": "$$", "location": {"address1": "241 W 51st St", "address2": "", "address3": null, "city": "New York", "zip_code": "10019", "country": "US", "state": "NY", "display_address": ["241 W 51st St", "New York, NY 10019"]}, "phone": "+16466092142", "display_phone": "(646) 609-2142", "distance": 598.7188422073039}, {"id": "jYhbUh1TV7SCfPxjIhVpcg", "alias": "baar-baar-new-york-2", "name": "Baar Baar", "image_url": "https://s3-media2.fl.yelpcdn.com/bphoto/QOh0iMXy-09xT50juVxYnw/o.jpg", "is_closed": false, "url": "https://www.yelp.com/biz/baar-baar-new-york-2?adjust_creative=dGXDlVbzOmyJ2a13MnYdVw&utm_campaign=yelp_api_v3&utm_medium=api_v3_business_search&utm_source=dGXDlVbzOmyJ2a13MnYdVw", "review_count": 1237, "categories": [{"alias": "gastropubs", "title": "Gastropubs"}, {"alias": "indpak", "title": "Indian"}, {"alias": "cocktailbars", "title": "Cocktail Bars"}], "rating": 4.0, "coordinates": {"latitude": 40.7244378855031, "longitude": -73.9915524}, "transactions": ["delivery", "pickup"], "price": "$$$", "location": {"address1": "13 E 1st St", "address2": "", "address3": "", "city": "New York", "zip_code": "10003", "country": "US", "state": "NY", "display_address": ["13 E 1st St", "New York, NY 10003"]}, "phone": "+12122281200", "display_phone": "(212) 228-1200", "distance": 4127.388685405502}, {"id": "QqrEF8_ZQCGi63cL10J5oA", "alias": "chola-new-york-3", "name": "Chola", "image_url": "https://s3-media2.fl.yelpcdn.com/bphoto/sES9shU8nbErVX_saLRRgA/o.jpg", "is_closed": false, "url": "https://www.yelp.com/biz/chola-new-york-3?adjust_creative=dGXDlVbzOmyJ2a13MnYdVw&utm_campaign=yelp_api_v3&utm_medium=api_v3_business_search&utm_source=dGXDlVbzOmyJ2a13MnYdVw", "review_count": 676, "categories": [{"alias": "indpak", "title": "Indian"}, {"alias": "soup", "title": "Soup"}, {"alias": "seafood", "title": "Seafood"}], "rating": 4.0, "coordinates": {"latitude": 40.76016, "longitude": -73.96582}, "transactions": ["delivery", "pickup"], "price": "$$", "location": {"address1": "232 E 58th St", "address2": "", "address3": "", "city": "New York", "zip_code": "10022", "country": "US", "state": "NY", "display_address": ["232 E 58th St", "New York, NY 10022"]}, "phone": "+12126884619", "display_phone": "(212) 688-4619", "distance": 1066.9492963124237}, {"id": "XLEdQl5s1bO5Iu43W_c96Q", "alias": "muna-new-york-2", "name": "Muna", "image_url": "https://s3-media2.fl.yelpcdn.com/bphoto/NM7mXPWqmNLbkVGB_pWL6w/o.jpg", "is_closed": false, "url": "https://www.yelp.com/biz/muna-new-york-2?adjust_creative=dGXDlVbzOmyJ2a13MnYdVw&utm_campaign=yelp_api_v3&utm_medium=api_v3_business_search&utm_source=dGXDlVbzOmyJ2a13MnYdVw", "review_count": 38, "categories": [{"alias": "himalayan", "title": "Himalayan/Nepalese"}, {"alias": "indpak", "title": "Indian"}], "rating": 4.5, "coordinates": {"latitude": 40.753509, "longitude": -73.973515}, "transactions": ["delivery", "pickup"], "location": {"address1": "152 East 46th St", "address2": null, "address3": "", "city": "New York", "zip_code": "10017", "country": "US", "state": "NY", "display_address": ["152 East 46th St", "New York, NY 10017"]}, "phone": "+16463987960", "display_phone": "(646) 398-7960", "distance": 854.7187286883661}, {"id": "jSMfV_e4Jh1DKoCnngOiQQ", "alias": "gulaabo-new-york", "name": "Gulaabo", "image_url": "https://s3-media3.fl.yelpcdn.com/bphoto/ruECsMejVh_66DxxA-9lpA/o.jpg", "is_closed": false, "url": "https://www.yelp.com/biz/gulaabo-new-york?adjust_creative=dGXDlVbzOmyJ2a13MnYdVw&utm_campaign=yelp_api_v3&utm_medium=api_v3_business_search&utm_source=dGXDlVbzOmyJ2a13MnYdVw", "review_count": 16, "categories": [{"alias": "indpak", "title": "Indian"}], "rating": 4.5, "coordinates": {"latitude": 40.759859, "longitude": -73.986707}, "transactions": [], "location": {"address1": "250 W 47th St", "address2": null, "address3": "", "city": "New York", "zip_code": "10036", "country": "US", "state": "NY", "display_address": ["250 W 47th St", "New York, NY 10036"]}, "phone": "+16466698261", "display_phone": "(646) 669-8261", "distance": 692.0316902354754}, {"id": "5UowQyu8tSljomOP-VL7NA", "alias": "tribhaanga-new-york", "name": "Tribhaanga", "image_url": "https://s3-media1.fl.yelpcdn.com/bphoto/M4R_wKL-dqJ--EtkKta7sw/o.jpg", "is_closed": false, "url": "https://www.yelp.com/biz/tribhaanga-new-york?adjust_creative=dGXDlVbzOmyJ2a13MnYdVw&utm_campaign=yelp_api_v3&utm_medium=api_v3_business_search&utm_source=dGXDlVbzOmyJ2a13MnYdVw", "review_count": 61, "categories": [{"alias": "indpak", "title": "Indian"}, {"alias": "asianfusion", "title": "Asian Fusion"}, {"alias": "himalayan", "title": "Himalayan/Nepalese"}], "rating": 4.5, "coordinates": {"latitude": 40.765496, "longitude": -73.982754}, "transactions": ["delivery", "pickup", "restaurant_reservation"], "location": {"address1": "234 W 56th St", "address2": "Fl 1", "address3": "", "city": "New York", "zip_code": "10019", "country": "US", "state": "NY", "display_address": ["234 W 56th St", "Fl 1", "New York, NY 10019"]}, "phone": "+12125862403", "display_phone": "(212) 586-2403", "distance": 688.1300851525369}, {"id": "iLjrQvbUYPj6NLkalyau0w", "alias": "hyderabadi-zaiqa-new-york", "name": "Hyderabadi Zaiqa", "image_url": "https://s3-media3.fl.yelpcdn.com/bphoto/sG74aCYBUFba0tFD9-8iEg/o.jpg", "is_closed": false, "url": "https://www.yelp.com/biz/hyderabadi-zaiqa-new-york?adjust_creative=dGXDlVbzOmyJ2a13MnYdVw&utm_campaign=yelp_api_v3&utm_medium=api_v3_business_search&utm_source=dGXDlVbzOmyJ2a13MnYdVw", "review_count": 25, "categories": [{"alias": "desserts", "title": "Desserts"}, {"alias": "juicebars", "title": "Juice Bars & Smoothies"}, {"alias": "indpak", "title": "Indian"}], "rating": 5.0, "coordinates": {"latitude": 40.76439568665357, "longitude": -73.9876243}, "transactions": ["delivery", "pickup"], "location": {"address1": "366 W 52 St", "address2": "", "address3": "", "city": "New York", "zip_code": "10019", "country": "US", "state": "NY", "display_address": ["366 W 52 St", "New York, NY 10019"]}, "phone": "+16469520066", "display_phone": "(646) 952-0066", "distance": 898.1110805548673}, {"id": "1KGvtMU7VBcdlvxo2brdQg", "alias": "clove-indian-restaurant-and-bar-new-york", "name": "Clove Indian Restaurant I", "image_url": "https://s3-media3.fl.yelpcdn.com/bphoto/NiQWurdcp_UrSuc8SEV_0Q/o.jpg", "is_closed": false, "url": "https://www.yelp.com/biz/clove-indian-restaurant-and-bar-new-york?adjust_creative=dGXDlVbzOmyJ2a13MnYdVw&utm_campaign=yelp_api_v3&utm_medium=api_v3_business_search&utm_source=dGXDlVbzOmyJ2a13MnYdVw", "review_count": 333, "categories": [{"alias": "indpak", "title": "Indian"}], "rating": 4.0, "coordinates": {"latitude": 40.8212624, "longitude": -73.9506836}, "transactions": ["delivery", "pickup"], "price": "$$", "location": {"address1": "1592 Amsterdam Ave", "address2": "Flr 1", "address3": "", "city": "Manhattan", "zip_code": "10031", "country": "US", "state": "NY", "display_address": ["1592 Amsterdam Ave", "Flr 1", "Manhattan, NY 10031"]}, "phone": "+16469186644", "display_phone": "(646) 918-6644", "distance": 7186.717054214504}, {"id": "A-ert0jDRBfku9ogyW_mEg", "alias": "spice-symphony-new-york-3", "name": "Spice Symphony", "image_url": "https://s3-media1.fl.yelpcdn.com/bphoto/ooBprHe-wyNb1dwvd1qhOA/o.jpg", "is_closed": false, "url": "https://www.yelp.com/biz/spice-symphony-new-york-3?adjust_creative=dGXDlVbzOmyJ2a13MnYdVw&utm_campaign=yelp_api_v3&utm_medium=api_v3_business_search&utm_source=dGXDlVbzOmyJ2a13MnYdVw", "review_count": 654, "categories": [{"alias": "chinese", "title": "Chinese"}, {"alias": "indpak", "title": "Indian"}, {"alias": "cocktailbars", "title": "Cocktail Bars"}], "rating": 4.5, "coordinates": {"latitude": 40.7558937072754, "longitude": -73.9715347290039}, "transactions": ["delivery", "pickup"], "price": "$$", "location": {"address1": "150 E 50th St", "address2": "", "address3": null, "city": "New York", "zip_code": "10022", "country": "US", "state": "NY", "display_address": ["150 E 50th St", "New York, NY 10022"]}, "phone": "+12123004869", "display_phone": "(212) 300-4869", "distance": 755.21739977009}, {"id": "eTzH9lmkmouNlmuJ77i8Ow", "alias": "angaar-new-york-2", "name": "Angaar", "image_url": "https://s3-media2.fl.yelpcdn.com/bphoto/TPwPaaXsFdNVwPLu5XdLRg/o.jpg", "is_closed": false, "url": "https://www.yelp.com/biz/angaar-new-york-2?adjust_creative=dGXDlVbzOmyJ2a13MnYdVw&utm_campaign=yelp_api_v3&utm_medium=api_v3_business_search&utm_source=dGXDlVbzOmyJ2a13MnYdVw", "review_count": 203, "categories": [{"alias": "indpak", "title": "Indian"}], "rating": 4.0, "coordinates": {"latitude": 40.7782, "longitude": -73.97802}, "transactions": ["delivery", "pickup"], "price": "$$", "location": {"address1": "283 Columbus Ave", "address2": "", "address3": null, "city": "New York", "zip_code": "10023", "country": "US", "state": "NY", "display_address": ["283 Columbus Ave", "New York, NY 10023"]}, "phone": "+12123934040", "display_phone": "(212) 393-4040", "distance": 2005.6461524152623}, {"id": "_R6EjbrynW_LFnmWoRqgww", "alias": "surya-madam-ji-new-york", "name": "Surya - Madam Ji", "image_url": "https://s3-media2.fl.yelpcdn.com/bphoto/hQVRvDKO8k5z0UD8711ngQ/o.jpg", "is_closed": false, "url": "https://www.yelp.com/biz/surya-madam-ji-new-york?adjust_creative=dGXDlVbzOmyJ2a13MnYdVw&utm_campaign=yelp_api_v3&utm_medium=api_v3_business_search&utm_source=dGXDlVbzOmyJ2a13MnYdVw", "review_count": 294, "categories": [{"alias": "indpak", "title": "Indian"}, {"alias": "cocktailbars", "title": "Cocktail Bars"}, {"alias": "wine_bars", "title": "Wine Bars"}], "rating": 3.5, "coordinates": {"latitude": 40.7281, "longitude": -73.99963}, "transactions": ["delivery", "pickup"], "price": "$$", "location": {"address1": "154 Bleecker St", "address2": "", "address3": "", "city": "New York", "zip_code": "10012", "country": "US", "state": "NY", "display_address": ["154 Bleecker St", "New York, NY 10012"]}, "phone": "+12128751405", "display_phone": "(212) 875-1405", "distance": 3980.592816292275}, {"id": "ePn4BwyXeY8NKN-MWSgfrQ", "alias": "kebab-aur-sharab-new-york", "name": "Kebab Aur Sharab", "image_url": "https://s3-media3.fl.yelpcdn.com/bphoto/167g-m8TvaEmb7F3EE9hAQ/o.jpg", "is_closed": false, "url": "https://www.yelp.com/biz/kebab-aur-sharab-new-york?adjust_creative=dGXDlVbzOmyJ2a13MnYdVw&utm_campaign=yelp_api_v3&utm_medium=api_v3_business_search&utm_source=dGXDlVbzOmyJ2a13MnYdVw", "review_count": 86, "categories": [{"alias": "indpak", "title": "Indian"}, {"alias": "kebab", "title": "Kebab"}, {"alias": "cocktailbars", "title": "Cocktail Bars"}], "rating": 4.0, "coordinates": {"latitude": 40.77951, "longitude": -73.98331}, "transactions": [], "location": {"address1": "247 W 72nd St", "address2": null, "address3": "", "city": "New York", "zip_code": "10023", "country": "US", "state": "NY", "display_address": ["247 W 72nd St", "New York, NY 10023"]}, "phone": "+12125405247", "display_phone": "(212) 540-5247", "distance": 2189.908767413801}, {"id": "ZikqL-flwV2XYlKtL2UfmA", "alias": "rangoli-exquisite-indian-cuisine-new-york", "name": "Rangoli Exquisite Indian Cuisine", "image_url": "https://s3-media3.fl.yelpcdn.com/bphoto/rd_Ia0dX3hwDTVigLjCuTA/o.jpg", "is_closed": false, "url": "https://www.yelp.com/biz/rangoli-exquisite-indian-cuisine-new-york?adjust_creative=dGXDlVbzOmyJ2a13MnYdVw&utm_campaign=yelp_api_v3&utm_medium=api_v3_business_search&utm_source=dGXDlVbzOmyJ2a13MnYdVw", "review_count": 513, "categories": [{"alias": "indpak", "title": "Indian"}], "rating": 4.5, "coordinates": {"latitude": 40.7693, "longitude": -73.95823}, "transactions": ["delivery", "pickup"], "price": "$$", "location": {"address1": "1393 A 2nd Ave", "address2": "", "address3": "", "city": "New York", "zip_code": "10021", "country": "US", "state": "NY", "display_address": ["1393 A 2nd Ave", "New York, NY 10021"]}, "phone": "+12126283800", "display_phone": "(212) 628-3800", "distance": 1980.7092510171008}, {"id": "CVpha6hKVu_r1lx6JxNIPg", "alias": "veeray-da-dhaba-new-york", "name": "Veeray da Dhaba", "image_url": "https://s3-media3.fl.yelpcdn.com/bphoto/wJUtPDVM0nt7YTanUEpG2Q/o.jpg", "is_closed": false, "url": "https://www.yelp.com/biz/veeray-da-dhaba-new-york?adjust_creative=dGXDlVbzOmyJ2a13MnYdVw&utm_campaign=yelp_api_v3&utm_medium=api_v3_business_search&utm_source=dGXDlVbzOmyJ2a13MnYdVw", "review_count": 109, "categories": [{"alias": "indpak", "title": "Indian"}], "rating": 4.5, "coordinates": {"latitude": 40.730819, "longitude": -73.982723}, "transactions": ["delivery", "pickup"], "location": {"address1": "222 1st Ave", "address2": null, "address3": "", "city": "New York", "zip_code": "10009", "country": "US", "state": "NY", "display_address": ["222 1st Ave", "New York, NY 10009"]}, "phone": "+12127771420", "display_phone": "(212) 777-1420", "distance": 3290.630229669704}, {"id": "XKy4Cy4uNgO7rxhH4yFJQQ", "alias": "mughlai-indian-cuisine-new-york-3", "name": "Mughlai Indian Cuisine", "image_url": "https://s3-media3.fl.yelpcdn.com/bphoto/Z2sYUaOOYIWEFHanImNtNQ/o.jpg", "is_closed": false, "url": "https://www.yelp.com/biz/mughlai-indian-cuisine-new-york-3?adjust_creative=dGXDlVbzOmyJ2a13MnYdVw&utm_campaign=yelp_api_v3&utm_medium=api_v3_business_search&utm_source=dGXDlVbzOmyJ2a13MnYdVw", "review_count": 462, "categories": [{"alias": "indpak", "title": "Indian"}], "rating": 4.0, "coordinates": {"latitude": 40.7397599, "longitude": -73.98226}, "transactions": ["delivery", "pickup"], "price": "$$", "location": {"address1": "329 3rd Ave", "address2": null, "address3": "", "city": "New York", "zip_code": "10010", "country": "US", "state": "NY", "display_address": ["329 3rd Ave", "New York, NY 10010"]}, "phone": "+12128890909", "display_phone": "(212) 889-0909", "distance": 2298.043745672266}, {"id": "Xl-zlT0NLLiKhym88em22w", "alias": "adda-indian-canteen-long-island-city", "name": "Adda Indian Canteen", "image_url": "https://s3-media3.fl.yelpcdn.com/bphoto/jysFNwbgMKGpBvAGjDVzcw/o.jpg", "is_closed": false, "url": "https://www.yelp.com/biz/adda-indian-canteen-long-island-city?adjust_creative=dGXDlVbzOmyJ2a13MnYdVw&utm_campaign=yelp_api_v3&utm_medium=api_v3_business_search&utm_source=dGXDlVbzOmyJ2a13MnYdVw", "review_count": 567, "categories": [{"alias": "indpak", "title": "Indian"}, {"alias": "halal", "title": "Halal"}], "rating": 4.0, "coordinates": {"latitude": 40.745011, "longitude": -73.934243}, "transactions": ["delivery", "pickup"], "price": "$$", "location": {"address1": "31-31 Thomson Ave", "address2": "", "address3": null, "city": "Long Island City", "zip_code": "11101", "country": "US", "state": "NY", "display_address": ["31-31 Thomson Ave", "Long Island City, NY 11101"]}, "phone": "+17184333888", "display_phone": "(718) 433-3888", "distance": 4093.397668213336}, {"id": "mZALre3ahuetu5X8_uUJew", "alias": "thelewala-new-york", "name": "Thelewala", "image_url": "https://s3-media2.fl.yelpcdn.com/bphoto/5KgclMDut5vG1d_nrvW7Yw/o.jpg", "is_closed": false, "url": "https://www.yelp.com/biz/thelewala-new-york?adjust_creative=dGXDlVbzOmyJ2a13MnYdVw&utm_campaign=yelp_api_v3&utm_medium=api_v3_business_search&utm_source=dGXDlVbzOmyJ2a13MnYdVw", "review_count": 541, "categories": [{"alias": "indpak", "title": "Indian"}], "rating": 4.0, "coordinates": {"latitude": 40.72963, "longitude": -74.00068}, "transactions": ["delivery", "pickup"], "price": "$", "location": {"address1": "112 Macdougal St", "address2": "", "address3": "", "city": "New York", "zip_code": "10012", "country": "US", "state": "NY", "display_address": ["112 Macdougal St", "New York, NY 10012"]}, "phone": "+12126149100", "display_phone": "(212) 614-9100", "distance": 3880.6838740976214}, {"id": "u1gdMF6vMCdwCilQ6vgyfw", "alias": "honest-new-york", "name": "Honest", "image_url": "https://s3-media4.fl.yelpcdn.com/bphoto/YjLPopNY7KLzAo_X4PsE3A/o.jpg", "is_closed": false, "url": "https://www.yelp.com/biz/honest-new-york?adjust_creative=dGXDlVbzOmyJ2a13MnYdVw&utm_campaign=yelp_api_v3&utm_medium=api_v3_business_search&utm_source=dGXDlVbzOmyJ2a13MnYdVw", "review_count": 52, "categories": [{"alias": "indpak", "title": "Indian"}], "rating": 4.5, "coordinates": {"latitude": 40.72887, "longitude": -74.00082}, "transactions": ["delivery", "pickup"], "price": "$$", "location": {"address1": "176 Bleecker St", "address2": "", "address3": null, "city": "New York", "zip_code": "10012", "country": "US", "state": "NY", "display_address": ["176 Bleecker St", "New York, NY 10012"]}, "phone": "+19172612610", "display_phone": "(917) 261-2610", "distance": 3963.0488544986074}, {"id": "50eKjWOB-H9iuo1ocACOaQ", "alias": "imli-urban-indian-food-new-york-3", "name": "Imli Urban Indian Food", "image_url": "https://s3-media1.fl.yelpcdn.com/bphoto/ITX2Be9adIEnNydLdr4D4A/o.jpg", "is_closed": false, "url": "https://www.yelp.com/biz/imli-urban-indian-food-new-york-3?adjust_creative=dGXDlVbzOmyJ2a13MnYdVw&utm_campaign=yelp_api_v3&utm_medium=api_v3_business_search&utm_source=dGXDlVbzOmyJ2a13MnYdVw", "review_count": 256, "categories": [{"alias": "indpak", "title": "Indian"}, {"alias": "cocktailbars", "title": "Cocktail Bars"}], "rating": 4.5, "coordinates": {"latitude": 40.7616660604253, "longitude": -73.9601389691234}, "transactions": ["delivery", "pickup"], "price": "$$", "location": {"address1": "1136 1st Ave", "address2": "", "address3": "", "city": "New York", "zip_code": "10065", "country": "US", "state": "NY", "display_address": ["1136 1st Ave", "New York, NY 10065"]}, "phone": "+12122560073", "display_phone": "(212) 256-0073", "distance": 1554.8553250962846}, {"id": "ECUTH1VOWxZ9GwfzblMKzA", "alias": "mughlai-indian-cuisine-new-york-8", "name": "Mughlai Indian Cuisine", "image_url": "https://s3-media3.fl.yelpcdn.com/bphoto/ACFsnia5tvgQbupV2RFnPw/o.jpg", "is_closed": false, "url": "https://www.yelp.com/biz/mughlai-indian-cuisine-new-york-8?adjust_creative=dGXDlVbzOmyJ2a13MnYdVw&utm_campaign=yelp_api_v3&utm_medium=api_v3_business_search&utm_source=dGXDlVbzOmyJ2a13MnYdVw", "review_count": 177, "categories": [{"alias": "indpak", "title": "Indian"}], "rating": 4.5, "coordinates": {"latitude": 40.765394, "longitude": -73.983272}, "transactions": ["delivery", "pickup"], "price": "$$", "location": {"address1": "255 W 55th St", "address2": null, "address3": "", "city": "New York", "zip_code": "10019", "country": "US", "state": "NY", "display_address": ["255 W 55th St", "New York, NY 10019"]}, "phone": "+16468700555", "display_phone": "(646) 870-0555", "distance": 700.4355602089759}, {"id": "m5Whyz8O8jM4DrE808h71g", "alias": "darbar-grill-new-york", "name": "Darbar Grill", "image_url": "https://s3-media2.fl.yelpcdn.com/bphoto/9rN41wJJx8ic1fxNMnaslA/o.jpg", "is_closed": false, "url": "https://www.yelp.com/biz/darbar-grill-new-york?adjust_creative=dGXDlVbzOmyJ2a13MnYdVw&utm_campaign=yelp_api_v3&utm_medium=api_v3_business_search&utm_source=dGXDlVbzOmyJ2a13MnYdVw", "review_count": 588, "categories": [{"alias": "indpak", "title": "Indian"}, {"alias": "wine_bars", "title": "Wine Bars"}, {"alias": "catering", "title": "Caterers"}], "rating": 4.0, "coordinates": {"latitude": 40.759357, "longitude": -73.968826}, "transactions": ["delivery", "pickup", "restaurant_reservation"], "price": "$$", "location": {"address1": "157 E 55th St", "address2": "", "address3": "", "city": "New York", "zip_code": "10022", "country": "US", "state": "NY", "display_address": ["157 E 55th St", "New York, NY 10022"]}, "phone": "+12127514600", "display_phone": "(212) 751-4600", "distance": 820.3876268523629}, {"id": "Q7wFlNr4OFU0eCJXcOmopg", "alias": "bombays-indian-restaurant-new-york", "name": "Bombay's Indian Restaurant", "image_url": "https://s3-media3.fl.yelpcdn.com/bphoto/yKDhC52JC0vMWb2D8X1qTA/o.jpg", "is_closed": false, "url": "https://www.yelp.com/biz/bombays-indian-restaurant-new-york?adjust_creative=dGXDlVbzOmyJ2a13MnYdVw&utm_campaign=yelp_api_v3&utm_medium=api_v3_business_search&utm_source=dGXDlVbzOmyJ2a13MnYdVw", "review_count": 262, "categories": [{"alias": "indpak", "title": "Indian"}], "rating": 3.5, "coordinates": {"latitude": 40.70344, "longitude": -74.01109}, "transactions": ["delivery", "pickup"], "price": "$$", "location": {"address1": "60 Pearl St", "address2": null, "address3": "", "city": "New York", "zip_code": "10004", "country": "US", "state": "NY", "display_address": ["60 Pearl St", "New York, NY 10004"]}, "phone": "+12127422222", "display_phone": "(212) 742-2222", "distance": 6885.36024021797}, {"id": "RARUAVWONyRQovr0D6TGQg", "alias": "baazi-new-york-2", "name": "Baazi", "image_url": "https://s3-media3.fl.yelpcdn.com/bphoto/GcGYn5V-88IFV0C3ku40nw/o.jpg", "is_closed": false, "url": "https://www.yelp.com/biz/baazi-new-york-2?adjust_creative=dGXDlVbzOmyJ2a13MnYdVw&utm_campaign=yelp_api_v3&utm_medium=api_v3_business_search&utm_source=dGXDlVbzOmyJ2a13MnYdVw", "review_count": 71, "categories": [{"alias": "indpak", "title": "Indian"}], "rating": 4.0, "coordinates": {"latitude": 40.7955035, "longitude": -73.9708505}, "transactions": ["delivery", "pickup"], "location": {"address1": "2588 Broadway", "address2": "", "address3": null, "city": "New York", "zip_code": "10025", "country": "US", "state": "NY", "display_address": ["2588 Broadway", "New York, NY 10025"]}, "phone": "+16468613859", "display_phone": "(646) 861-3859", "distance": 3987.0800227226528}, {"id": "JSX6Pk56w4BhgO8eSvCrKg", "alias": "aroqa-new-york", "name": "aRoqa", "image_url": "https://s3-media1.fl.yelpcdn.com/bphoto/VSx5w9dlSIwIgruaHwxJ4w/o.jpg", "is_closed": false, "url": "https://www.yelp.com/biz/aroqa-new-york?adjust_creative=dGXDlVbzOmyJ2a13MnYdVw&utm_campaign=yelp_api_v3&utm_medium=api_v3_business_search&utm_source=dGXDlVbzOmyJ2a13MnYdVw", "review_count": 402, "categories": [{"alias": "indpak", "title": "Indian"}, {"alias": "bars", "title": "Bars"}, {"alias": "tapasmallplates", "title": "Tapas/Small Plates"}], "rating": 4.0, "coordinates": {"latitude": 40.746065, "longitude": -74.001254}, "transactions": ["delivery", "pickup"], "price": "$$", "location": {"address1": "206 9th Ave", "address2": null, "address3": "", "city": "New York", "zip_code": "10011", "country": "US", "state": "NY", "display_address": ["206 9th Ave", "New York, NY 10011"]}, "phone": "+16466785471", "display_phone": "(646) 678-5471", "distance": 2479.7148121306127}, {"id": "IU6pOHR8Re8kvSn0mzhPHg", "alias": "jaz-indian-cuisine-new-york-3", "name": "Jaz Indian Cuisine", "image_url": "https://s3-media2.fl.yelpcdn.com/bphoto/bS-nq-9lX_LQwPGekIZsMA/o.jpg", "is_closed": false, "url": "https://www.yelp.com/biz/jaz-indian-cuisine-new-york-3?adjust_creative=dGXDlVbzOmyJ2a13MnYdVw&utm_campaign=yelp_api_v3&utm_medium=api_v3_business_search&utm_source=dGXDlVbzOmyJ2a13MnYdVw", "review_count": 151, "categories": [{"alias": "indpak", "title": "Indian"}, {"alias": "seafood", "title": "Seafood"}, {"alias": "soup", "title": "Soup"}], "rating": 4.5, "coordinates": {"latitude": 40.7659, "longitude": -73.98741}, "transactions": ["delivery", "pickup", "restaurant_reservation"], "location": {"address1": "813 Ninth Ave", "address2": "", "address3": null, "city": "New York", "zip_code": "10019", "country": "US", "state": "NY", "display_address": ["813 Ninth Ave", "New York, NY 10019"]}, "phone": "+19176757440", "display_phone": "(917) 675-7440", "distance": 989.1512121512426}, {"id": "GNPne4Il-itbn2sLbvMo1g", "alias": "angel-indian-restaurant-jackson-heights", "name": "Angel Indian Restaurant", "image_url": "https://s3-media2.fl.yelpcdn.com/bphoto/FM08_xYcbq_xASi7K2xAog/o.jpg", "is_closed": false, "url": "https://www.yelp.com/biz/angel-indian-restaurant-jackson-heights?adjust_creative=dGXDlVbzOmyJ2a13MnYdVw&utm_campaign=yelp_api_v3&utm_medium=api_v3_business_search&utm_source=dGXDlVbzOmyJ2a13MnYdVw", "review_count": 421, "categories": [{"alias": "indpak", "title": "Indian"}, {"alias": "vegetarian", "title": "Vegetarian"}], "rating": 4.5, "coordinates": {"latitude": 40.7473069226623, "longitude": -73.8912814123575}, "transactions": ["delivery", "pickup"], "price": "$$", "location": {"address1": "7414 37th Rd", "address2": "", "address3": null, "city": "Jackson Heights", "zip_code": "11372", "country": "US", "state": "NY", "display_address": ["7414 37th Rd", "Jackson Heights, NY 11372"]}, "phone": "+13478480097", "display_phone": "(347) 848-0097", "distance": 7485.565048173636}, {"id": "u_CnSp9FieAuWqhvCn-A2A", "alias": "spice-mantra-new-york", "name": "Spice Mantra", "image_url": "https://s3-media2.fl.yelpcdn.com/bphoto/2DfwvwTkDnlAdq-bKKiokg/o.jpg", "is_closed": false, "url": "https://www.yelp.com/biz/spice-mantra-new-york?adjust_creative=dGXDlVbzOmyJ2a13MnYdVw&utm_campaign=yelp_api_v3&utm_medium=api_v3_business_search&utm_source=dGXDlVbzOmyJ2a13MnYdVw", "review_count": 81, "categories": [{"alias": "indpak", "title": "Indian"}], "rating": 4.5, "coordinates": {"latitude": 40.75825, "longitude": -73.96633}, "transactions": ["delivery", "pickup"], "location": {"address1": "1047 2nd Ave", "address2": null, "address3": "", "city": "New York", "zip_code": "10022", "country": "US", "state": "NY", "display_address": ["1047 2nd Ave", "New York, NY 10022"]}, "phone": "+12125729900", "display_phone": "(212) 572-9900", "distance": 1041.7046964337137}, {"id": "iXSuNKKUBIrBX7zUerlQDQ", "alias": "benares-new-york-3", "name": "Benares", "image_url": "https://s3-media3.fl.yelpcdn.com/bphoto/02ev2tUDuz86hPhPxMEgFQ/o.jpg", "is_closed": false, "url": "https://www.yelp.com/biz/benares-new-york-3?adjust_creative=dGXDlVbzOmyJ2a13MnYdVw&utm_campaign=yelp_api_v3&utm_medium=api_v3_business_search&utm_source=dGXDlVbzOmyJ2a13MnYdVw", "review_count": 654, "categories": [{"alias": "indpak", "title": "Indian"}], "rating": 4.0, "coordinates": {"latitude": 40.71415, "longitude": -74.009209}, "transactions": ["delivery", "pickup"], "price": "$$", "location": {"address1": "45 Murray St", "address2": "", "address3": null, "city": "New York", "zip_code": "10007", "country": "US", "state": "NY", "display_address": ["45 Murray St", "New York, NY 10007"]}, "phone": "+12127664900", "display_phone": "(212) 766-4900", "distance": 5738.544215349666}, {"id": "SP4bvMvxel_UPdof_er3HA", "alias": "taco-mahal-new-york", "name": "Taco Mahal", "image_url": "https://s3-media2.fl.yelpcdn.com/bphoto/wo7f5lvsgtQ5fOeWw6z83A/o.jpg", "is_closed": false, "url": "https://www.yelp.com/biz/taco-mahal-new-york?adjust_creative=dGXDlVbzOmyJ2a13MnYdVw&utm_campaign=yelp_api_v3&utm_medium=api_v3_business_search&utm_source=dGXDlVbzOmyJ2a13MnYdVw", "review_count": 854, "categories": [{"alias": "indpak", "title": "Indian"}, {"alias": "tacos", "title": "Tacos"}, {"alias": "latin", "title": "Latin American"}], "rating": 4.5, "coordinates": {"latitude": 40.73235768476899, "longitude": -74.00332645767203}, "transactions": ["delivery", "pickup"], "price": "$$", "location": {"address1": "73 7th Ave S", "address2": "", "address3": null, "city": "New York", "zip_code": "10014", "country": "US", "state": "NY", "display_address": ["73 7th Ave S", "New York, NY 10014"]}, "phone": "+16467191553", "display_phone": "(646) 719-1553", "distance": 3737.5052587881264}, {"id": "ZNJ4ij7_xOlKSeMeEh1khA", "alias": "rowdy-rooster-new-york", "name": "Rowdy Rooster", "image_url": "https://s3-media2.fl.yelpcdn.com/bphoto/Ju0To9zgCvbWPYv_HCjsDA/o.jpg", "is_closed": false, "url": "https://www.yelp.com/biz/rowdy-rooster-new-york?adjust_creative=dGXDlVbzOmyJ2a13MnYdVw&utm_campaign=yelp_api_v3&utm_medium=api_v3_business_search&utm_source=dGXDlVbzOmyJ2a13MnYdVw", "review_count": 196, "categories": [{"alias": "indpak", "title": "Indian"}, {"alias": "chickenshop", "title": "Chicken Shop"}], "rating": 4.5, "coordinates": {"latitude": 40.728473350506725, "longitude": -73.98500709999999}, "transactions": ["delivery", "pickup"], "price": "$$", "location": {"address1": "149 1st Ave", "address2": "", "address3": null, "city": "New York", "zip_code": "10003", "country": "US", "state": "NY", "display_address": ["149 1st Ave", "New York, NY 10003"]}, "phone": "", "display_phone": "", "distance": 3571.8092269778126}, {"id": "7VIUu8ay754GoUYEpsmxOA", "alias": "jazba-new-york", "name": "Jazba", "image_url": "https://s3-media3.fl.yelpcdn.com/bphoto/a9UeMhlytkIrH5syPG0Gww/o.jpg", "is_closed": false, "url": "https://www.yelp.com/biz/jazba-new-york?adjust_creative=dGXDlVbzOmyJ2a13MnYdVw&utm_campaign=yelp_api_v3&utm_medium=api_v3_business_search&utm_source=dGXDlVbzOmyJ2a13MnYdVw", "review_count": 11, "categories": [{"alias": "indpak", "title": "Indian"}], "rating": 5.0, "coordinates": {"latitude": 40.731701, "longitude": -73.98585}, "transactions": ["delivery", "pickup"], "location": {"address1": "207 2nd Ave", "address2": "", "address3": null, "city": "New York", "zip_code": "10003", "country": "US", "state": "NY", "display_address": ["207 2nd Ave", "New York, NY 10003"]}, "phone": "+16468613343", "display_phone": "(646) 861-3343", "distance": 3230.1848088259835}, {"id": "VC1udoc_sbHdFaBr0-bMsA", "alias": "bombay-chowk-new-york", "name": "Bombay Chowk", "image_url": "https://s3-media2.fl.yelpcdn.com/bphoto/zTD62o_uT2wbL7NsoPUoGg/o.jpg", "is_closed": false, "url": "https://www.yelp.com/biz/bombay-chowk-new-york?adjust_creative=dGXDlVbzOmyJ2a13MnYdVw&utm_campaign=yelp_api_v3&utm_medium=api_v3_business_search&utm_source=dGXDlVbzOmyJ2a13MnYdVw", "review_count": 175, "categories": [{"alias": "indpak", "title": "Indian"}], "rating": 4.0, "coordinates": {"latitude": 40.76873, "longitude": -73.9549}, "transactions": ["delivery", "pickup"], "price": "$$", "location": {"address1": "1378 1st Ave", "address2": null, "address3": "", "city": "New York", "zip_code": "10021", "country": "US", "state": "NY", "display_address": ["1378 1st Ave", "New York, NY 10021"]}, "phone": "+12122494111", "display_phone": "(212) 249-4111", "distance": 2195.977564899364}, {"id": "7USPKYeaAfxl0Ch9j_1l7A", "alias": "moti-mahal-delux-new-york", "name": "Moti Mahal Delux", "image_url": "https://s3-media1.fl.yelpcdn.com/bphoto/AXSKhFwc0WSuGsON2ZYQxw/o.jpg", "is_closed": false, "url": "https://www.yelp.com/biz/moti-mahal-delux-new-york?adjust_creative=dGXDlVbzOmyJ2a13MnYdVw&utm_campaign=yelp_api_v3&utm_medium=api_v3_business_search&utm_source=dGXDlVbzOmyJ2a13MnYdVw", "review_count": 565, "categories": [{"alias": "indpak", "title": "Indian"}], "rating": 4.0, "coordinates": {"latitude": 40.76213, "longitude": -73.9605}, "transactions": ["delivery", "pickup"], "price": "$$", "location": {"address1": "1149 1st Ave", "address2": null, "address3": "", "city": "New York", "zip_code": "10065", "country": "US", "state": "NY", "display_address": ["1149 1st Ave", "New York, NY 10065"]}, "phone": "+12123713535", "display_phone": "(212) 371-3535", "distance": 1540.1475406093275}, {"id": "5faOK0osoS-zdEwT21S-Cg", "alias": "saravanaa-bhavan-new-york-9", "name": "Saravanaa Bhavan", "image_url": "https://s3-media1.fl.yelpcdn.com/bphoto/dehh9iOIVBqFxthB0Hcm4w/o.jpg", "is_closed": false, "url": "https://www.yelp.com/biz/saravanaa-bhavan-new-york-9?adjust_creative=dGXDlVbzOmyJ2a13MnYdVw&utm_campaign=yelp_api_v3&utm_medium=api_v3_business_search&utm_source=dGXDlVbzOmyJ2a13MnYdVw", "review_count": 409, "categories": [{"alias": "indpak", "title": "Indian"}], "rating": 3.0, "coordinates": {"latitude": 40.7835899, "longitude": -73.97777}, "transactions": ["delivery", "pickup"], "price": "$$", "location": {"address1": "413 Amsterdam Ave", "address2": "", "address3": "", "city": "New York", "zip_code": "10024", "country": "US", "state": "NY", "display_address": ["413 Amsterdam Ave", "New York, NY 10024"]}, "phone": "+12127217755", "display_phone": "(212) 721-7755", "distance": 2595.647575855696},{"id": "hdiuRS9sVZSMReZm4oV5SA", "alias": "da-andrea-new-york", "name": "Da Andrea", "image_url": "https://s3-media1.fl.yelpcdn.com/bphoto/OciLddTWxvBLKMH5DkMAOw/o.jpg", "is_closed": false, "url": "https://www.yelp.com/biz/da-andrea-new-york?adjust_creative=dGXDlVbzOmyJ2a13MnYdVw&utm_campaign=yelp_api_v3&utm_medium=api_v3_business_search&utm_source=dGXDlVbzOmyJ2a13MnYdVw", "review_count": 2071, "categories": [{"alias": "italian", "title": "Italian"}, {"alias": "mediterranean", "title": "Mediterranean"}, {"alias": "breakfast_brunch", "title": "Breakfast & Brunch"}], "rating": 4.5, "coordinates": {"latitude": 40.736218, "longitude": -73.99597}, "transactions": ["delivery", "restaurant_reservation", "pickup"], "price": "$$", "location": {"address1": "35 W 13th St", "address2": "", "address3": "", "city": "New York", "zip_code": "10011", "country": "US", "state": "NY", "display_address": ["35 W 13th St", "New York, NY 10011"]}, "phone": "+12123671979", "display_phone": "(212) 367-1979", "distance": 3047.2448524235715}, {"id": "16ZnHpuaaBt92XWeJHCC5A", "alias": "olio-e-pi\u00f9-new-york-7", "name": "Olio e Pi\u00f9", "image_url": "https://s3-media4.fl.yelpcdn.com/bphoto/CUpPgz_Q4QBHxxxxDJJTTA/o.jpg", "is_closed": false, "url": "https://www.yelp.com/biz/olio-e-pi%C3%B9-new-york-7?adjust_creative=dGXDlVbzOmyJ2a13MnYdVw&utm_campaign=yelp_api_v3&utm_medium=api_v3_business_search&utm_source=dGXDlVbzOmyJ2a13MnYdVw", "review_count": 4862, "categories": [{"alias": "pizza", "title": "Pizza"}, {"alias": "italian", "title": "Italian"}, {"alias": "cocktailbars", "title": "Cocktail Bars"}], "rating": 4.5, "coordinates": {"latitude": 40.733798036104304, "longitude": -73.99977392649927}, "transactions": ["pickup", "delivery"], "price": "$$", "location": {"address1": "3 Greenwich Ave", "address2": null, "address3": "", "city": "New York", "zip_code": "10014", "country": "US", "state": "NY", "display_address": ["3 Greenwich Ave", "New York, NY 10014"]}, "phone": "+12122436546", "display_phone": "(212) 243-6546", "distance": 3440.941932265756}, {"id": "WG639VkTjmK5dzydd1BBJA", "alias": "rubirosa-new-york-2", "name": "Rubirosa", "image_url": "https://s3-media3.fl.yelpcdn.com/bphoto/l0Phrnhhj78RFiDhLIOUyQ/o.jpg", "is_closed": false, "url": "https://www.yelp.com/biz/rubirosa-new-york-2?adjust_creative=dGXDlVbzOmyJ2a13MnYdVw&utm_campaign=yelp_api_v3&utm_medium=api_v3_business_search&utm_source=dGXDlVbzOmyJ2a13MnYdVw", "review_count": 3170, "categories": [{"alias": "italian", "title": "Italian"}, {"alias": "pizza", "title": "Pizza"}], "rating": 4.5, "coordinates": {"latitude": 40.722766, "longitude": -73.996233}, "transactions": ["pickup"], "price": "$$", "location": {"address1": "235 Mulberry St", "address2": "", "address3": "", "city": "New York", "zip_code": "10012", "country": "US", "state": "NY", "display_address": ["235 Mulberry St", "New York, NY 10012"]}, "phone": "+12129650500", "display_phone": "(212) 965-0500", "distance": 4424.001338202467}, {"id": "DoSU8IPq-Py_YV3kYmXPfQ", "alias": "trattoria-trecolori-new-york", "name": "Trattoria Trecolori", "image_url": "https://s3-media3.fl.yelpcdn.com/bphoto/nnfB_XDK58GS69n29d2E2A/o.jpg", "is_closed": false, "url": "https://www.yelp.com/biz/trattoria-trecolori-new-york?adjust_creative=dGXDlVbzOmyJ2a13MnYdVw&utm_campaign=yelp_api_v3&utm_medium=api_v3_business_search&utm_source=dGXDlVbzOmyJ2a13MnYdVw", "review_count": 2677, "categories": [{"alias": "italian", "title": "Italian"}], "rating": 4.0, "coordinates": {"latitude": 40.759876, "longitude": -73.986767}, "transactions": ["delivery", "pickup"], "price": "$$", "location": {"address1": "254 West 47th St", "address2": "", "address3": "", "city": "New York", "zip_code": "10036", "country": "US", "state": "NY", "display_address": ["254 West 47th St", "New York, NY 10036"]}, "phone": "+12129974540", "display_phone": "(212) 997-4540", "distance": 699.6215371899465}, {"id": "OWNmOq-TAsHjGcYdCVclSw", "alias": "osteria-la-baia-new-york", "name": "Osteria La Baia", "image_url": "https://s3-media3.fl.yelpcdn.com/bphoto/vvnwV1X3WSSE2JJAHN4Dqw/o.jpg", "is_closed": false, "url": "https://www.yelp.com/biz/osteria-la-baia-new-york?adjust_creative=dGXDlVbzOmyJ2a13MnYdVw&utm_campaign=yelp_api_v3&utm_medium=api_v3_business_search&utm_source=dGXDlVbzOmyJ2a13MnYdVw", "review_count": 109, "categories": [{"alias": "italian", "title": "Italian"}], "rating": 4.5, "coordinates": {"latitude": 40.76189587672743, "longitude": -73.9806749}, "transactions": ["delivery", "pickup"], "location": {"address1": "129 W 52nd St", "address2": null, "address3": "", "city": "New York", "zip_code": "10019", "country": "US", "state": "NY", "display_address": ["129 W 52nd St", "New York, NY 10019"]}, "phone": "+19176719898", "display_phone": "(917) 671-9898", "distance": 261.6862442703956}, {"id": "vjubSxmdG_HoBBgd39geBw", "alias": "ninos-46-new-york", "name": "Nino's 46", "image_url": "https://s3-media4.fl.yelpcdn.com/bphoto/wFy83D_d5e89zMGcO5omWg/o.jpg", "is_closed": false, "url": "https://www.yelp.com/biz/ninos-46-new-york?adjust_creative=dGXDlVbzOmyJ2a13MnYdVw&utm_campaign=yelp_api_v3&utm_medium=api_v3_business_search&utm_source=dGXDlVbzOmyJ2a13MnYdVw", "review_count": 1410, "categories": [{"alias": "italian", "title": "Italian"}, {"alias": "gluten_free", "title": "Gluten-Free"}, {"alias": "pizza", "title": "Pizza"}], "rating": 4.0, "coordinates": {"latitude": 40.756899, "longitude": -73.980507}, "transactions": ["delivery", "restaurant_reservation", "pickup"], "price": "$$", "location": {"address1": "39 W 46th St", "address2": null, "address3": "", "city": "New York", "zip_code": "10036", "country": "US", "state": "NY", "display_address": ["39 W 46th St", "New York, NY 10036"]}, "phone": "+12127194015", "display_phone": "(212) 719-4015", "distance": 405.76742870079994}, {"id": "rp8S7scxOkVVeG7dNneMGQ", "alias": "l-artusi-new-york", "name": "L'Artusi", "image_url": "https://s3-media2.fl.yelpcdn.com/bphoto/mf-sqEXHdm6aLo3i3LJsfQ/o.jpg", "is_closed": false, "url": "https://www.yelp.com/biz/l-artusi-new-york?adjust_creative=dGXDlVbzOmyJ2a13MnYdVw&utm_campaign=yelp_api_v3&utm_medium=api_v3_business_search&utm_source=dGXDlVbzOmyJ2a13MnYdVw", "review_count": 2366, "categories": [{"alias": "italian", "title": "Italian"}, {"alias": "cocktailbars", "title": "Cocktail Bars"}], "rating": 4.5, "coordinates": {"latitude": 40.73372, "longitude": -74.00513}, "transactions": ["delivery", "pickup"], "price": "$$$", "location": {"address1": "228 W 10th St", "address2": "", "address3": "", "city": "New York", "zip_code": "10014", "country": "US", "state": "NY", "display_address": ["228 W 10th St", "New York, NY 10014"]}, "phone": "+12122555757", "display_phone": "(212) 255-5757", "distance": 3702.6967291210426}, {"id": "VmdyRRMtUXOWV7F7w0ImwQ", "alias": "piccola-cucina-uptown-new-york", "name": "Piccola Cucina Uptown", "image_url": "https://s3-media1.fl.yelpcdn.com/bphoto/AlY4fWNZKAgYaS8bRAYJ4Q/o.jpg", "is_closed": false, "url": "https://www.yelp.com/biz/piccola-cucina-uptown-new-york?adjust_creative=dGXDlVbzOmyJ2a13MnYdVw&utm_campaign=yelp_api_v3&utm_medium=api_v3_business_search&utm_source=dGXDlVbzOmyJ2a13MnYdVw", "review_count": 377, "categories": [{"alias": "sicilian", "title": "Sicilian"}], "rating": 4.5, "coordinates": {"latitude": 40.763174, "longitude": -73.969046}, "transactions": ["delivery", "pickup"], "price": "$$$", "location": {"address1": "106 E 60th St", "address2": null, "address3": "", "city": "New York", "zip_code": "10022", "country": "US", "state": "NY", "display_address": ["106 E 60th St", "New York, NY 10022"]}, "phone": "+16467073997", "display_phone": "(646) 707-3997", "distance": 861.5743326078291}, {"id": "V3USzFEGhuoXez4G2Rk11A", "alias": "tavola-new-york", "name": "Tavola", "image_url": "https://s3-media1.fl.yelpcdn.com/bphoto/HhhlKQchXV9dhvgGgNH1Bw/o.jpg", "is_closed": false, "url": "https://www.yelp.com/biz/tavola-new-york?adjust_creative=dGXDlVbzOmyJ2a13MnYdVw&utm_campaign=yelp_api_v3&utm_medium=api_v3_business_search&utm_source=dGXDlVbzOmyJ2a13MnYdVw", "review_count": 1345, "categories": [{"alias": "italian", "title": "Italian"}, {"alias": "pizza", "title": "Pizza"}, {"alias": "wine_bars", "title": "Wine Bars"}], "rating": 4.0, "coordinates": {"latitude": 40.755403, "longitude": -73.994516}, "transactions": ["restaurant_reservation", "delivery"], "price": "$$", "location": {"address1": "488 9th Ave", "address2": "", "address3": "", "city": "New York", "zip_code": "10018", "country": "US", "state": "NY", "display_address": ["488 9th Ave", "New York, NY 10018"]}, "phone": "+12122731181", "display_phone": "(212) 273-1181", "distance": 1451.195568662845}, {"id": "h37t9rA06Sr4EetJjKrfzw", "alias": "don-angie-new-york", "name": "Don Angie", "image_url": "https://s3-media2.fl.yelpcdn.com/bphoto/onJX6_vaMPHXUqIbMrq79A/o.jpg", "is_closed": false, "url": "https://www.yelp.com/biz/don-angie-new-york?adjust_creative=dGXDlVbzOmyJ2a13MnYdVw&utm_campaign=yelp_api_v3&utm_medium=api_v3_business_search&utm_source=dGXDlVbzOmyJ2a13MnYdVw", "review_count": 780, "categories": [{"alias": "italian", "title": "Italian"}, {"alias": "newamerican", "title": "American (New)"}], "rating": 4.5, "coordinates": {"latitude": 40.73778, "longitude": -74.00197}, "transactions": ["delivery"], "price": "$$$", "location": {"address1": "103 Greenwich Ave", "address2": "", "address3": null, "city": "New York", "zip_code": "10014", "country": "US", "state": "NY", "display_address": ["103 Greenwich Ave", "New York, NY 10014"]}, "phone": "+12128898884", "display_phone": "(212) 889-8884", "distance": 3185.3614588844407}, {"id": "OAqsZMbjv66nOMqlimnYuQ", "alias": "uva-new-york", "name": "Uva", "image_url": "https://s3-media2.fl.yelpcdn.com/bphoto/Dv_IaSo7QTUrRRtclijk2w/o.jpg", "is_closed": false, "url": "https://www.yelp.com/biz/uva-new-york?adjust_creative=dGXDlVbzOmyJ2a13MnYdVw&utm_campaign=yelp_api_v3&utm_medium=api_v3_business_search&utm_source=dGXDlVbzOmyJ2a13MnYdVw", "review_count": 2772, "categories": [{"alias": "italian", "title": "Italian"}, {"alias": "wine_bars", "title": "Wine Bars"}, {"alias": "pizza", "title": "Pizza"}], "rating": 4.0, "coordinates": {"latitude": 40.77219299003591, "longitude": -73.95561517222123}, "transactions": ["restaurant_reservation", "delivery", "pickup"], "price": "$$$", "location": {"address1": "1486 2nd Ave", "address2": null, "address3": "", "city": "New York", "zip_code": "10075", "country": "US", "state": "NY", "display_address": ["1486 2nd Ave", "New York, NY 10075"]}, "phone": "+12124724552", "display_phone": "(212) 472-4552", "distance": 2342.7565499994726}, {"id": "raqwXUBlnc0e8c7CYmxEJQ", "alias": "scarpetta-new-york", "name": "Scarpetta", "image_url": "https://s3-media1.fl.yelpcdn.com/bphoto/rSgDEOpd3JSl3llkpVu8tg/o.jpg", "is_closed": false, "url": "https://www.yelp.com/biz/scarpetta-new-york?adjust_creative=dGXDlVbzOmyJ2a13MnYdVw&utm_campaign=yelp_api_v3&utm_medium=api_v3_business_search&utm_source=dGXDlVbzOmyJ2a13MnYdVw", "review_count": 2273, "categories": [{"alias": "italian", "title": "Italian"}, {"alias": "bars", "title": "Bars"}, {"alias": "desserts", "title": "Desserts"}], "rating": 4.0, "coordinates": {"latitude": 40.744509, "longitude": -73.9856}, "transactions": ["delivery"], "price": "$$$", "location": {"address1": "88 Madison Ave", "address2": "", "address3": "", "city": "New York", "zip_code": "10016", "country": "US", "state": "NY", "display_address": ["88 Madison Ave", "New York, NY 10016"]}, "phone": "+12126910555", "display_phone": "(212) 691-0555", "distance": 1845.9714846749469}, {"id": "OCTiJwvjoK81WoDwsTkFvA", "alias": "paesano-of-mulberry-street-new-york", "name": "Paesano of Mulberry Street", "image_url": "https://s3-media2.fl.yelpcdn.com/bphoto/yN9ARCE3LF6u9E0yN5WpIw/o.jpg", "is_closed": false, "url": "https://www.yelp.com/biz/paesano-of-mulberry-street-new-york?adjust_creative=dGXDlVbzOmyJ2a13MnYdVw&utm_campaign=yelp_api_v3&utm_medium=api_v3_business_search&utm_source=dGXDlVbzOmyJ2a13MnYdVw", "review_count": 1418, "categories": [{"alias": "italian", "title": "Italian"}, {"alias": "salad", "title": "Salad"}, {"alias": "seafood", "title": "Seafood"}], "rating": 4.0, "coordinates": {"latitude": 40.718554, "longitude": -73.997447}, "transactions": ["pickup", "delivery", "restaurant_reservation"], "price": "$$", "location": {"address1": "136 Mulberry St", "address2": "", "address3": "", "city": "New York", "zip_code": "10013", "country": "US", "state": "NY", "display_address": ["136 Mulberry St", "New York, NY 10013"]}, "phone": "+12129651188", "display_phone": "(212) 965-1188", "distance": 4899.786912203181}, {"id": "HpxYBu1ARzOGvuUcLJe54g", "alias": "giardino-54-new-york", "name": "Giardino 54", "image_url": "https://s3-media3.fl.yelpcdn.com/bphoto/c2ryLJ0qvZqNTIgJevQ9YQ/o.jpg", "is_closed": false, "url": "https://www.yelp.com/biz/giardino-54-new-york?adjust_creative=dGXDlVbzOmyJ2a13MnYdVw&utm_campaign=yelp_api_v3&utm_medium=api_v3_business_search&utm_source=dGXDlVbzOmyJ2a13MnYdVw", "review_count": 230, "categories": [{"alias": "wine_bars", "title": "Wine Bars"}, {"alias": "italian", "title": "Italian"}, {"alias": "cocktailbars", "title": "Cocktail Bars"}], "rating": 4.5, "coordinates": {"latitude": 40.7660476, "longitude": -73.987591}, "transactions": ["delivery", "pickup"], "price": "$$$", "location": {"address1": "400 1/2 W 54th St", "address2": "", "address3": null, "city": "New York", "zip_code": "10019", "country": "US", "state": "NY", "display_address": ["400 1/2 W 54th St", "New York, NY 10019"]}, "phone": "+16467264575", "display_phone": "(646) 726-4575", "distance": 1003.3986360609495}, {"id": "JFmWkslCGTeuwC_Yews4-Q", "alias": "carlotto-new-york", "name": "Carlotto", "image_url": "https://s3-media2.fl.yelpcdn.com/bphoto/_wZvTt_s-LtgDfJfMdzJ_g/o.jpg", "is_closed": false, "url": "https://www.yelp.com/biz/carlotto-new-york?adjust_creative=dGXDlVbzOmyJ2a13MnYdVw&utm_campaign=yelp_api_v3&utm_medium=api_v3_business_search&utm_source=dGXDlVbzOmyJ2a13MnYdVw", "review_count": 30, "categories": [{"alias": "italian", "title": "Italian"}], "rating": 4.5, "coordinates": {"latitude": 40.7375, "longitude": -73.98782}, "transactions": [], "location": {"address1": "100 E 19th St", "address2": "", "address3": null, "city": "New York", "zip_code": "10003", "country": "US", "state": "NY", "display_address": ["100 E 19th St", "New York, NY 10003"]}, "phone": "+12122091054", "display_phone": "(212) 209-1054", "distance": 2647.475811674278}, {"id": "22nKUyCIbpnzR6R3_g1ptQ", "alias": "carmines-italian-restaurant-times-square-new-york-5", "name": "Carmine's Italian Restaurant - Times Square", "image_url": "https://s3-media1.fl.yelpcdn.com/bphoto/0UszeEYPWI-RIk0Ak6HtVQ/o.jpg", "is_closed": false, "url": "https://www.yelp.com/biz/carmines-italian-restaurant-times-square-new-york-5?adjust_creative=dGXDlVbzOmyJ2a13MnYdVw&utm_campaign=yelp_api_v3&utm_medium=api_v3_business_search&utm_source=dGXDlVbzOmyJ2a13MnYdVw", "review_count": 4665, "categories": [{"alias": "italian", "title": "Italian"}, {"alias": "venues", "title": "Venues & Event Spaces"}], "rating": 4.0, "coordinates": {"latitude": 40.75749848725768, "longitude": -73.98665333142026}, "transactions": ["delivery", "pickup"], "price": "$$", "location": {"address1": "200 W 44th St", "address2": "", "address3": "", "city": "New York", "zip_code": "10036", "country": "US", "state": "NY", "display_address": ["200 W 44th St", "New York, NY 10036"]}, "phone": "+12122213800", "display_phone": "(212) 221-3800", "distance": 750.187780787568}, {"id": "Z-QmxQZAJEy5GXqA82Bemw", "alias": "da-toscano-new-york", "name": "Da Toscano", "image_url": "https://s3-media2.fl.yelpcdn.com/bphoto/hKVmraMl79AlKfYBGp8ofA/o.jpg", "is_closed": false, "url": "https://www.yelp.com/biz/da-toscano-new-york?adjust_creative=dGXDlVbzOmyJ2a13MnYdVw&utm_campaign=yelp_api_v3&utm_medium=api_v3_business_search&utm_source=dGXDlVbzOmyJ2a13MnYdVw", "review_count": 142, "categories": [{"alias": "italian", "title": "Italian"}], "rating": 4.5, "coordinates": {"latitude": 40.730508, "longitude": -74.001238}, "transactions": ["delivery", "pickup"], "location": {"address1": "24 Minetta Ln", "address2": "", "address3": null, "city": "New York", "zip_code": "10012", "country": "US", "state": "NY", "display_address": ["24 Minetta Ln", "New York, NY 10012"]}, "phone": "+12126064054", "display_phone": "(212) 606-4054", "distance": 3794.47952422981}, {"id": "LkV96_buOU_n0br4SBO57w", "alias": "ci-siamo-new-york-5", "name": "Ci Siamo", "image_url": "https://s3-media3.fl.yelpcdn.com/bphoto/Sc2AdduIiIcN7U36j_wstQ/o.jpg", "is_closed": false, "url": "https://www.yelp.com/biz/ci-siamo-new-york-5?adjust_creative=dGXDlVbzOmyJ2a13MnYdVw&utm_campaign=yelp_api_v3&utm_medium=api_v3_business_search&utm_source=dGXDlVbzOmyJ2a13MnYdVw", "review_count": 365, "categories": [{"alias": "italian", "title": "Italian"}, {"alias": "bars", "title": "Bars"}, {"alias": "pizza", "title": "Pizza"}], "rating": 4.5, "coordinates": {"latitude": 40.75240549384363, "longitude": -73.9982864846782}, "transactions": [], "price": "$$$", "location": {"address1": "440 West 33rd St", "address2": "Ste 100", "address3": "", "city": "New York", "zip_code": "10001", "country": "US", "state": "NY", "display_address": ["440 West 33rd St", "Ste 100", "New York, NY 10001"]}, "phone": "+12122196559", "display_phone": "(212) 219-6559", "distance": 1879.2335564498362}, {"id": "AUifp6IDKzmorCM6vY2fug", "alias": "pepe-giallo-new-york", "name": "Pepe Giallo", "image_url": "https://s3-media3.fl.yelpcdn.com/bphoto/0hZOcrrtCTOMUnlKHU5gfQ/o.jpg", "is_closed": false, "url": "https://www.yelp.com/biz/pepe-giallo-new-york?adjust_creative=dGXDlVbzOmyJ2a13MnYdVw&utm_campaign=yelp_api_v3&utm_medium=api_v3_business_search&utm_source=dGXDlVbzOmyJ2a13MnYdVw", "review_count": 789, "categories": [{"alias": "italian", "title": "Italian"}], "rating": 4.0, "coordinates": {"latitude": 40.7468940064083, "longitude": -74.0049896784992}, "transactions": ["pickup", "delivery"], "price": "$$", "location": {"address1": "195 10th Ave", "address2": null, "address3": "", "city": "New York", "zip_code": "10011", "country": "US", "state": "NY", "display_address": ["195 10th Ave", "New York, NY 10011"]}, "phone": "+12122426055", "display_phone": "(212) 242-6055", "distance": 2678.1632285019805}, {"id": "Q1_UvNyONsaVS_VC1mD9Dw", "alias": "osteria-cotta-new-york", "name": "Osteria Cotta", "image_url": "https://s3-media1.fl.yelpcdn.com/bphoto/UVxuXoW83Rf4VChKcZZlJA/o.jpg", "is_closed": false, "url": "https://www.yelp.com/biz/osteria-cotta-new-york?adjust_creative=dGXDlVbzOmyJ2a13MnYdVw&utm_campaign=yelp_api_v3&utm_medium=api_v3_business_search&utm_source=dGXDlVbzOmyJ2a13MnYdVw", "review_count": 1072, "categories": [{"alias": "italian", "title": "Italian"}, {"alias": "wine_bars", "title": "Wine Bars"}, {"alias": "venues", "title": "Venues & Event Spaces"}], "rating": 4.0, "coordinates": {"latitude": 40.78554, "longitude": -73.97263}, "transactions": ["delivery", "pickup"], "price": "$$", "location": {"address1": "513 Columbus Ave", "address2": "", "address3": "", "city": "New York", "zip_code": "10024", "country": "US", "state": "NY", "display_address": ["513 Columbus Ave", "New York, NY 10024"]}, "phone": "+12128738500", "display_phone": "(212) 873-8500", "distance": 2857.4952785463647}, {"id": "5TX0X8w5ssIACU_pnBEq6g", "alias": "tonys-di-napoli-new-york-4", "name": "Tony's Di Napoli", "image_url": "https://s3-media2.fl.yelpcdn.com/bphoto/oiswc3JuBx8TGXROs56aMA/o.jpg", "is_closed": false, "url": "https://www.yelp.com/biz/tonys-di-napoli-new-york-4?adjust_creative=dGXDlVbzOmyJ2a13MnYdVw&utm_campaign=yelp_api_v3&utm_medium=api_v3_business_search&utm_source=dGXDlVbzOmyJ2a13MnYdVw", "review_count": 2609, "categories": [{"alias": "italian", "title": "Italian"}, {"alias": "wine_bars", "title": "Wine Bars"}, {"alias": "seafood", "title": "Seafood"}], "rating": 4.0, "coordinates": {"latitude": 40.75641, "longitude": -73.98547}, "transactions": ["delivery", "pickup"], "price": "$$$", "location": {"address1": "147 W 43rd St", "address2": "", "address3": "", "city": "New York", "zip_code": "10036", "country": "US", "state": "NY", "display_address": ["147 W 43rd St", "New York, NY 10036"]}, "phone": "+12122210100", "display_phone": "(212) 221-0100", "distance": 716.4452640700139}, {"id": "JLpEKUYAtzBRQwsUL3RPIA", "alias": "il-corso-new-york", "name": "Il Corso", "image_url": "https://s3-media1.fl.yelpcdn.com/bphoto/Kaq43p0ueSp872npX-zITw/o.jpg", "is_closed": false, "url": "https://www.yelp.com/biz/il-corso-new-york?adjust_creative=dGXDlVbzOmyJ2a13MnYdVw&utm_campaign=yelp_api_v3&utm_medium=api_v3_business_search&utm_source=dGXDlVbzOmyJ2a13MnYdVw", "review_count": 443, "categories": [{"alias": "italian", "title": "Italian"}, {"alias": "wine_bars", "title": "Wine Bars"}], "rating": 4.5, "coordinates": {"latitude": 40.762441, "longitude": -73.977206}, "transactions": ["delivery"], "price": "$$$", "location": {"address1": "54 W 55th St", "address2": null, "address3": "", "city": "New York", "zip_code": "10019", "country": "US", "state": "NY", "display_address": ["54 W 55th St", "New York, NY 10019"]}, "phone": "+12129571500", "display_phone": "(212) 957-1500", "distance": 270.33369317301305}, {"id": "7_hGsGEkHrjgAiYVjrCFnw", "alias": "carbone-new-york", "name": "Carbone New York", "image_url": "https://s3-media2.fl.yelpcdn.com/bphoto/oKVsrDjjrIaTWMoOsXMWRg/o.jpg", "is_closed": false, "url": "https://www.yelp.com/biz/carbone-new-york?adjust_creative=dGXDlVbzOmyJ2a13MnYdVw&utm_campaign=yelp_api_v3&utm_medium=api_v3_business_search&utm_source=dGXDlVbzOmyJ2a13MnYdVw", "review_count": 1702, "categories": [{"alias": "italian", "title": "Italian"}], "rating": 4.0, "coordinates": {"latitude": 40.72798911499417, "longitude": -74.00024139816493}, "transactions": [], "price": "$$$$", "location": {"address1": "181 Thompson St", "address2": "", "address3": "", "city": "New York", "zip_code": "10012", "country": "US", "state": "NY", "display_address": ["181 Thompson St", "New York, NY 10012"]}, "phone": "+12122543000", "display_phone": "(212) 254-3000", "distance": 4024.2979598050088}, {"id": "qBGKigOGn_flCx1apxPzlA", "alias": "piccola-cucina-osteria-new-york-2", "name": "Piccola Cucina Osteria", "image_url": "https://s3-media3.fl.yelpcdn.com/bphoto/NpARz4CQKQWq5kWzO10jxw/o.jpg", "is_closed": false, "url": "https://www.yelp.com/biz/piccola-cucina-osteria-new-york-2?adjust_creative=dGXDlVbzOmyJ2a13MnYdVw&utm_campaign=yelp_api_v3&utm_medium=api_v3_business_search&utm_source=dGXDlVbzOmyJ2a13MnYdVw", "review_count": 796, "categories": [{"alias": "italian", "title": "Italian"}], "rating": 4.5, "coordinates": {"latitude": 40.72506, "longitude": -74.00322}, "transactions": ["pickup", "delivery"], "price": "$$", "location": {"address1": "196 Spring St", "address2": "", "address3": "", "city": "New York", "zip_code": "10012", "country": "US", "state": "NY", "display_address": ["196 Spring St", "New York, NY 10012"]}, "phone": "+16464787488", "display_phone": "(646) 478-7488", "distance": 4434.318114509252}, {"id": "Zp-K3ztVTzR-LrWwl_CBgA", "alias": "la-pecora-bianca-new-york-6", "name": "La Pecora Bianca", "image_url": "https://s3-media1.fl.yelpcdn.com/bphoto/_Ic5KSqAxdL2dd6UkeuyGw/o.jpg", "is_closed": false, "url": "https://www.yelp.com/biz/la-pecora-bianca-new-york-6?adjust_creative=dGXDlVbzOmyJ2a13MnYdVw&utm_campaign=yelp_api_v3&utm_medium=api_v3_business_search&utm_source=dGXDlVbzOmyJ2a13MnYdVw", "review_count": 256, "categories": [{"alias": "bars", "title": "Bars"}, {"alias": "italian", "title": "Italian"}, {"alias": "breakfast_brunch", "title": "Breakfast & Brunch"}], "rating": 4.0, "coordinates": {"latitude": 40.7525275894982, "longitude": -73.9829860255122}, "transactions": [], "location": {"address1": "20 W 40th St", "address2": "", "address3": null, "city": "New York", "zip_code": "10018", "country": "US", "state": "NY", "display_address": ["20 W 40th St", "New York, NY 10018"]}, "phone": "+12129244040", "display_phone": "(212) 924-4040", "distance": 934.5677629757193}, {"id": "Vs8kQ4R381y27AH018gLpg", "alias": "supper-new-york", "name": "Supper", "image_url": "https://s3-media4.fl.yelpcdn.com/bphoto/VgYreViVbDel2zylxtNEXQ/o.jpg", "is_closed": false, "url": "https://www.yelp.com/biz/supper-new-york?adjust_creative=dGXDlVbzOmyJ2a13MnYdVw&utm_campaign=yelp_api_v3&utm_medium=api_v3_business_search&utm_source=dGXDlVbzOmyJ2a13MnYdVw", "review_count": 1492, "categories": [{"alias": "italian", "title": "Italian"}, {"alias": "desserts", "title": "Desserts"}, {"alias": "wine_bars", "title": "Wine Bars"}], "rating": 4.0, "coordinates": {"latitude": 40.72290786539601, "longitude": -73.98520720537888}, "transactions": ["delivery", "pickup"], "price": "$$", "location": {"address1": "156 E 2nd St", "address2": "", "address3": "", "city": "New York", "zip_code": "10009", "country": "US", "state": "NY", "display_address": ["156 E 2nd St", "New York, NY 10009"]}, "phone": "+12124777600", "display_phone": "(212) 477-7600", "distance": 4186.653998598968}, {"id": "ktMtLr8mp4K7IGxUgCTs6Q", "alias": "bocca-di-bacco-new-york-12", "name": "Bocca di Bacco", "image_url": "https://s3-media3.fl.yelpcdn.com/bphoto/ax3QNEF0qzlYysnKT9nAmg/o.jpg", "is_closed": false, "url": "https://www.yelp.com/biz/bocca-di-bacco-new-york-12?adjust_creative=dGXDlVbzOmyJ2a13MnYdVw&utm_campaign=yelp_api_v3&utm_medium=api_v3_business_search&utm_source=dGXDlVbzOmyJ2a13MnYdVw", "review_count": 11, "categories": [{"alias": "italian", "title": "Italian"}, {"alias": "wine_bars", "title": "Wine Bars"}, {"alias": "breakfast_brunch", "title": "Breakfast & Brunch"}], "rating": 4.5, "coordinates": {"latitude": 40.76021745303923, "longitude": -73.99156281784906}, "transactions": ["delivery", "pickup"], "location": {"address1": "635 9th Ave", "address2": null, "address3": "", "city": "New York", "zip_code": "10036", "country": "US", "state": "NY", "display_address": ["635 9th Ave", "New York, NY 10036"]}, "phone": "+12122622525", "display_phone": "(212) 262-2525", "distance": 1100.176482036109}, {"id": "MOwB9YYd-Ko6nVgSB-ltQw", "alias": "briciola-new-york", "name": "Briciola", "image_url": "https://s3-media3.fl.yelpcdn.com/bphoto/MCi7eJnHST0CPI0sG_x-dw/o.jpg", "is_closed": false, "url": "https://www.yelp.com/biz/briciola-new-york?adjust_creative=dGXDlVbzOmyJ2a13MnYdVw&utm_campaign=yelp_api_v3&utm_medium=api_v3_business_search&utm_source=dGXDlVbzOmyJ2a13MnYdVw", "review_count": 1012, "categories": [{"alias": "italian", "title": "Italian"}, {"alias": "wine_bars", "title": "Wine Bars"}, {"alias": "tapas", "title": "Tapas Bars"}], "rating": 4.0, "coordinates": {"latitude": 40.7637997047278, "longitude": -73.9880919456482}, "transactions": ["pickup", "delivery"], "price": "$$", "location": {"address1": "370 W 51st St", "address2": "", "address3": "", "city": "New York", "zip_code": "10019", "country": "US", "state": "NY", "display_address": ["370 W 51st St", "New York, NY 10019"]}, "phone": "+16466785763", "display_phone": "(646) 678-5763", "distance": 900.8151135164967}, {"id": "26emJlm1YMFyOCezfgVk4g", "alias": "da-raffaele-new-york", "name": "Da Raffaele", "image_url": "https://s3-media3.fl.yelpcdn.com/bphoto/qQ1oAz1LA54i9i_kGjrzhA/o.jpg", "is_closed": false, "url": "https://www.yelp.com/biz/da-raffaele-new-york?adjust_creative=dGXDlVbzOmyJ2a13MnYdVw&utm_campaign=yelp_api_v3&utm_medium=api_v3_business_search&utm_source=dGXDlVbzOmyJ2a13MnYdVw", "review_count": 219, "categories": [{"alias": "italian", "title": "Italian"}], "rating": 4.5, "coordinates": {"latitude": 40.7535386913133, "longitude": -73.9666010811925}, "transactions": ["delivery"], "price": "$$", "location": {"address1": "883 First Ave", "address2": "", "address3": "", "city": "New York", "zip_code": "10022", "country": "US", "state": "NY", "display_address": ["883 First Ave", "New York, NY 10022"]}, "phone": "+16468959849", "display_phone": "(646) 895-9849", "distance": 1247.2467752613275}, {"id": "dc3hkLkAqCSxDWQzrx-g9A", "alias": "quality-italian-new-york", "name": "Quality Italian", "image_url": "https://s3-media2.fl.yelpcdn.com/bphoto/7JK95Qmi9lKwvI7ags6fVA/o.jpg", "is_closed": false, "url": "https://www.yelp.com/biz/quality-italian-new-york?adjust_creative=dGXDlVbzOmyJ2a13MnYdVw&utm_campaign=yelp_api_v3&utm_medium=api_v3_business_search&utm_source=dGXDlVbzOmyJ2a13MnYdVw", "review_count": 1409, "categories": [{"alias": "italian", "title": "Italian"}, {"alias": "steak", "title": "Steakhouses"}, {"alias": "newamerican", "title": "American (New)"}], "rating": 4.0, "coordinates": {"latitude": 40.7644044527436, "longitude": -73.9767805051616}, "transactions": ["delivery", "pickup"], "price": "$$$", "location": {"address1": "57 W 57th St", "address2": "", "address3": "", "city": "New York", "zip_code": "10019", "country": "US", "state": "NY", "display_address": ["57 W 57th St", "New York, NY 10019"]}, "phone": "+12123901111", "display_phone": "(212) 390-1111", "distance": 487.85506383973416}, {"id": "yZJbealagfujEkgesAl2hA", "alias": "lupa-new-york", "name": "Lupa", "image_url": "https://s3-media1.fl.yelpcdn.com/bphoto/0_EF0APVQ4X_bAqJF7zi6g/o.jpg", "is_closed": false, "url": "https://www.yelp.com/biz/lupa-new-york?adjust_creative=dGXDlVbzOmyJ2a13MnYdVw&utm_campaign=yelp_api_v3&utm_medium=api_v3_business_search&utm_source=dGXDlVbzOmyJ2a13MnYdVw", "review_count": 1737, "categories": [{"alias": "italian", "title": "Italian"}], "rating": 4.0, "coordinates": {"latitude": 40.7276, "longitude": -74.000045}, "transactions": ["pickup", "delivery"], "price": "$$$", "location": {"address1": "170 Thompson St", "address2": "", "address3": "", "city": "New York", "zip_code": "10012", "country": "US", "state": "NY", "display_address": ["170 Thompson St", "New York, NY 10012"]}, "phone": "+12129825089", "display_phone": "(212) 982-5089", "distance": 4050.2606595202838}, {"id": "MphfKkYFEe0BDQ6hZ0A5fA", "alias": "gelso-and-grand-new-york", "name": "Gelso & Grand", "image_url": "https://s3-media3.fl.yelpcdn.com/bphoto/ZV0bgSfrkjlb1rewpItqCA/o.jpg", "is_closed": false, "url": "https://www.yelp.com/biz/gelso-and-grand-new-york?adjust_creative=dGXDlVbzOmyJ2a13MnYdVw&utm_campaign=yelp_api_v3&utm_medium=api_v3_business_search&utm_source=dGXDlVbzOmyJ2a13MnYdVw", "review_count": 1451, "categories": [{"alias": "italian", "title": "Italian"}, {"alias": "pastashops", "title": "Pasta Shops"}, {"alias": "pizza", "title": "Pizza"}], "rating": 4.5, "coordinates": {"latitude": 40.71958, "longitude": -73.99734}, "transactions": ["delivery", "pickup"], "price": "$$", "location": {"address1": "186 Grand St", "address2": "", "address3": "", "city": "New York", "zip_code": "10013", "country": "US", "state": "NY", "display_address": ["186 Grand St", "New York, NY 10013"]}, "phone": "+12122261600", "display_phone": "(212) 226-1600", "distance": 4788.444771368333}, {"id": "TqNd-LKHuoYo1_mYwqiBFQ", "alias": "nonna-dora-s-new-york", "name": "Nonna Dora\u2019s", "image_url": "https://s3-media1.fl.yelpcdn.com/bphoto/A81uA-nt4T8stvAYDjiJEw/o.jpg", "is_closed": false, "url": "https://www.yelp.com/biz/nonna-dora-s-new-york?adjust_creative=dGXDlVbzOmyJ2a13MnYdVw&utm_campaign=yelp_api_v3&utm_medium=api_v3_business_search&utm_source=dGXDlVbzOmyJ2a13MnYdVw", "review_count": 110, "categories": [{"alias": "pastashops", "title": "Pasta Shops"}], "rating": 4.5, "coordinates": {"latitude": 40.74440176159688, "longitude": -73.97634764480043}, "transactions": [], "location": {"address1": "606 2nd Ave", "address2": "", "address3": null, "city": "New York", "zip_code": "10016", "country": "US", "state": "NY", "display_address": ["606 2nd Ave", "New York, NY 10016"]}, "phone": "+19172616544", "display_phone": "(917) 261-6544", "distance": 1767.6654968498756}, {"id": "HiNUBUR1hFwScd_OvVLQAg", "alias": "la-pecora-bianca-new-york", "name": "La Pecora Bianca", "image_url": "https://s3-media1.fl.yelpcdn.com/bphoto/pXoM8IbmiWix_LZSNqYGqw/o.jpg", "is_closed": false, "url": "https://www.yelp.com/biz/la-pecora-bianca-new-york?adjust_creative=dGXDlVbzOmyJ2a13MnYdVw&utm_campaign=yelp_api_v3&utm_medium=api_v3_business_search&utm_source=dGXDlVbzOmyJ2a13MnYdVw", "review_count": 1079, "categories": [{"alias": "italian", "title": "Italian"}], "rating": 4.0, "coordinates": {"latitude": 40.74358, "longitude": -73.9892}, "transactions": ["pickup"], "price": "$$$", "location": {"address1": "1133 Broadway", "address2": "", "address3": "", "city": "New York", "zip_code": "10010", "country": "US", "state": "NY", "display_address": ["1133 Broadway", "New York, NY 10010"]}, "phone": "+12124989696", "display_phone": "(212) 498-9696", "distance": 2043.3176171330297}, {"id": "zYaYXpmlo6QdnaPwuxWHhQ", "alias": "l-osteria-new-york", "name": "L'Osteria", "image_url": "https://s3-media4.fl.yelpcdn.com/bphoto/_GF9XLfvXe1VoZ85UaD8Tg/o.jpg", "is_closed": false, "url": "https://www.yelp.com/biz/l-osteria-new-york?adjust_creative=dGXDlVbzOmyJ2a13MnYdVw&utm_campaign=yelp_api_v3&utm_medium=api_v3_business_search&utm_source=dGXDlVbzOmyJ2a13MnYdVw", "review_count": 37, "categories": [{"alias": "italian", "title": "Italian"}, {"alias": "desserts", "title": "Desserts"}, {"alias": "salad", "title": "Salad"}], "rating": 4.5, "coordinates": {"latitude": 40.77704, "longitude": -73.95721}, "transactions": ["delivery", "pickup"], "location": {"address1": "1219 Lexington Ave", "address2": "", "address3": null, "city": "New York", "zip_code": "10028", "country": "US", "state": "NY", "display_address": ["1219 Lexington Ave", "New York, NY 10028"]}, "phone": "+16465246294", "display_phone": "(646) 524-6294", "distance": 2605.0116208926333}, {"id": "yB4ziqFM_7V8JxJas7CHfA", "alias": "ulivo-new-york-2", "name": "Ulivo", "image_url": "https://s3-media4.fl.yelpcdn.com/bphoto/D5GPvFhIQCujw9dX5zQ9sw/o.jpg", "is_closed": false, "url": "https://www.yelp.com/biz/ulivo-new-york-2?adjust_creative=dGXDlVbzOmyJ2a13MnYdVw&utm_campaign=yelp_api_v3&utm_medium=api_v3_business_search&utm_source=dGXDlVbzOmyJ2a13MnYdVw", "review_count": 379, "categories": [{"alias": "italian", "title": "Italian"}, {"alias": "cocktailbars", "title": "Cocktail Bars"}], "rating": 4.0, "coordinates": {"latitude": 40.7447371960713, "longitude": -73.9880339428782}, "transactions": ["delivery", "pickup"], "price": "$$", "location": {"address1": "4 W 28th St", "address2": "", "address3": "", "city": "New York", "zip_code": "10001", "country": "US", "state": "NY", "display_address": ["4 W 28th St", "New York, NY 10001"]}, "phone": "+12126848000", "display_phone": "(212) 684-8000", "distance": 1899.1780758476311}, {"id": "k5fd-RSdG4IuXnnGSQ5oOw", "alias": "san-marzano-pasta-fresca-new-york", "name": "San Marzano Pasta Fresca", "image_url": "https://s3-media2.fl.yelpcdn.com/bphoto/1CtNBVBzlbVKHhNS6DouVA/o.jpg", "is_closed": false, "url": "https://www.yelp.com/biz/san-marzano-pasta-fresca-new-york?adjust_creative=dGXDlVbzOmyJ2a13MnYdVw&utm_campaign=yelp_api_v3&utm_medium=api_v3_business_search&utm_source=dGXDlVbzOmyJ2a13MnYdVw", "review_count": 1566, "categories": [{"alias": "italian", "title": "Italian"}, {"alias": "bars", "title": "Bars"}, {"alias": "breakfast_brunch", "title": "Breakfast & Brunch"}], "rating": 4.0, "coordinates": {"latitude": 40.727966, "longitude": -73.988382}, "transactions": ["pickup", "delivery"], "price": "$$", "location": {"address1": "117 Second Ave", "address2": "", "address3": "", "city": "New York", "zip_code": "10003", "country": "US", "state": "NY", "display_address": ["117 Second Ave", "New York, NY 10003"]}, "phone": "+12127773600", "display_phone": "(212) 777-3600", "distance": 3677.021259827236}, {"id": "LXdblKc5g1Dp17xiV-Am1w", "alias": "trattoria-dellarte-new-york", "name": "Trattoria Dell'Arte", "image_url": "https://s3-media4.fl.yelpcdn.com/bphoto/YLzbKuDi2qwkFk_oBTo9BA/o.jpg", "is_closed": false, "url": "https://www.yelp.com/biz/trattoria-dellarte-new-york?adjust_creative=dGXDlVbzOmyJ2a13MnYdVw&utm_campaign=yelp_api_v3&utm_medium=api_v3_business_search&utm_source=dGXDlVbzOmyJ2a13MnYdVw", "review_count": 1203, "categories": [{"alias": "italian", "title": "Italian"}], "rating": 4.0, "coordinates": {"latitude": 40.76545990643915, "longitude": -73.98053136970677}, "transactions": ["delivery", "pickup"], "price": "$$$", "location": {"address1": "900 7th Ave", "address2": "", "address3": "", "city": "New York", "zip_code": "10019", "country": "US", "state": "NY", "display_address": ["900 7th Ave", "New York, NY 10019"]}, "phone": "+12122459800", "display_phone": "(212) 245-9800", "distance": 607.7831852541938}, {"id": "B2X53VuOuLyXe0OsGY-ZzA", "alias": "la-pecora-bianca-new-york-8", "name": "La Pecora Bianca", "image_url": "https://s3-media1.fl.yelpcdn.com/bphoto/RkbH_SlRnPVT1A3D268Ohw/o.jpg", "is_closed": false, "url": "https://www.yelp.com/biz/la-pecora-bianca-new-york-8?adjust_creative=dGXDlVbzOmyJ2a13MnYdVw&utm_campaign=yelp_api_v3&utm_medium=api_v3_business_search&utm_source=dGXDlVbzOmyJ2a13MnYdVw", "review_count": 62, "categories": [{"alias": "italian", "title": "Italian"}, {"alias": "wine_bars", "title": "Wine Bars"}, {"alias": "cocktailbars", "title": "Cocktail Bars"}], "rating": 4.5, "coordinates": {"latitude": 40.73959, "longitude": -74.00775}, "transactions": [], "location": {"address1": "817 Washington St", "address2": "", "address3": null, "city": "New York", "zip_code": "10014", "country": "US", "state": "NY", "display_address": ["817 Washington St", "New York, NY 10014"]}, "phone": "+12125093030", "display_phone": "(212) 509-3030", "distance": 3366.171307237012}, {"id": "yQ7K4uFnxXxpBVbnOSR8kA", "alias": "polpette-71-new-york", "name": "Polpette 71", "image_url": "https://s3-media1.fl.yelpcdn.com/bphoto/6_GgDJkM2grSVfezrxu9RA/o.jpg", "is_closed": false, "url": "https://www.yelp.com/biz/polpette-71-new-york?adjust_creative=dGXDlVbzOmyJ2a13MnYdVw&utm_campaign=yelp_api_v3&utm_medium=api_v3_business_search&utm_source=dGXDlVbzOmyJ2a13MnYdVw", "review_count": 254, "categories": [{"alias": "italian", "title": "Italian"}], "rating": 4.0, "coordinates": {"latitude": 40.77668, "longitude": -73.97888}, "transactions": ["delivery", "pickup"], "price": "$$", "location": {"address1": "71 West 71st St", "address2": "", "address3": null, "city": "New York", "zip_code": "10023", "country": "US", "state": "NY", "display_address": ["71 West 71st St", "New York, NY 10023"]}, "phone": "+12128751512", "display_phone": "(212) 875-1512", "distance": 1829.8889576404288}, {"id": "JwCnSW-RQ7_DxvbzWNO1hA", "alias": "coletta-new-york-2", "name": "Coletta", "image_url": "https://s3-media2.fl.yelpcdn.com/bphoto/v8F0R1NL86t-OGsldZoHXw/o.jpg", "is_closed": false, "url": "https://www.yelp.com/biz/coletta-new-york-2?adjust_creative=dGXDlVbzOmyJ2a13MnYdVw&utm_campaign=yelp_api_v3&utm_medium=api_v3_business_search&utm_source=dGXDlVbzOmyJ2a13MnYdVw", "review_count": 227, "categories": [{"alias": "vegan", "title": "Vegan"}, {"alias": "vegetarian", "title": "Vegetarian"}, {"alias": "italian", "title": "Italian"}], "rating": 4.5, "coordinates": {"latitude": 40.74094, "longitude": -73.98139}, "transactions": ["delivery", "pickup"], "price": "$$$", "location": {"address1": "365 3rd Ave", "address2": null, "address3": "", "city": "New York", "zip_code": "10016", "country": "US", "state": "NY", "display_address": ["365 3rd Ave", "New York, NY 10016"]}, "phone": "+16468612889", "display_phone": "(646) 861-2889", "distance": 2164.523528618198}, {"id": "Ve6GVzzJpR5QIIPdcn6ViQ", "alias": "mercato-new-york", "name": "Mercato", "image_url": "https://s3-media3.fl.yelpcdn.com/bphoto/LTDeQgRvclFWi5cfXOr3qg/o.jpg", "is_closed": false, "url": "https://www.yelp.com/biz/mercato-new-york?adjust_creative=dGXDlVbzOmyJ2a13MnYdVw&utm_campaign=yelp_api_v3&utm_medium=api_v3_business_search&utm_source=dGXDlVbzOmyJ2a13MnYdVw", "review_count": 1051, "categories": [{"alias": "italian", "title": "Italian"}, {"alias": "cocktailbars", "title": "Cocktail Bars"}, {"alias": "desserts", "title": "Desserts"}], "rating": 4.0, "coordinates": {"latitude": 40.75619, "longitude": -73.9937}, "transactions": ["delivery", "pickup"], "price": "$$$", "location": {"address1": "352 W 39th St", "address2": "", "address3": "", "city": "New York", "zip_code": "10018", "country": "US", "state": "NY", "display_address": ["352 W 39th St", "New York, NY 10018"]}, "phone": "+12126432000", "display_phone": "(212) 643-2000", "distance": 1353.7649154225949}, {"id": "rFeNJtqgMWf2tWy-RB6jgg", "alias": "torrisi-new-york-2", "name": "Torrisi", "image_url": "https://s3-media2.fl.yelpcdn.com/bphoto/LCXS1Q8GH-biNP2PYrJmQw/o.jpg", "is_closed": false, "url": "https://www.yelp.com/biz/torrisi-new-york-2?adjust_creative=dGXDlVbzOmyJ2a13MnYdVw&utm_campaign=yelp_api_v3&utm_medium=api_v3_business_search&utm_source=dGXDlVbzOmyJ2a13MnYdVw", "review_count": 92, "categories": [{"alias": "italian", "title": "Italian"}], "rating": 4.5, "coordinates": {"latitude": 40.72430313694441, "longitude": -73.99543783926944}, "transactions": [], "price": "$$$$", "location": {"address1": "275 Mulberry St", "address2": null, "address3": "", "city": "New York", "zip_code": "10012", "country": "US", "state": "NY", "display_address": ["275 Mulberry St", "New York, NY 10012"]}, "phone": "+12122543000", "display_phone": "(212) 254-3000", "distance": 4240.495788948849}, {"id": "dIyKvfhjtm3NuKrMVVt0TA", "alias": "lucciola-italian-restaurant-new-york", "name": "Lucciola Italian Restaurant", "image_url": "https://s3-media1.fl.yelpcdn.com/bphoto/htcyJA68o7BVE3HmP5OAsQ/o.jpg", "is_closed": false, "url": "https://www.yelp.com/biz/lucciola-italian-restaurant-new-york?adjust_creative=dGXDlVbzOmyJ2a13MnYdVw&utm_campaign=yelp_api_v3&utm_medium=api_v3_business_search&utm_source=dGXDlVbzOmyJ2a13MnYdVw", "review_count": 101, "categories": [{"alias": "italian", "title": "Italian"}, {"alias": "beer_and_wine", "title": "Beer, Wine & Spirits"}], "rating": 4.0, "coordinates": {"latitude": 40.790362, "longitude": -73.972629}, "transactions": [], "price": "$$$$", "location": {"address1": "621 Amsterdam Ave", "address2": null, "address3": "", "city": "New York", "zip_code": "10024", "country": "US", "state": "NY", "display_address": ["621 Amsterdam Ave", "New York, NY 10024"]}, "phone": "+13475361335", "display_phone": "(347) 536-1335", "distance": 3383.422183774751}, {"id": "jDIVPYpxQAk1HUAi0NIlQw", "alias": "pazza-notte-new-york-2", "name": "Pazza Notte", "image_url": "https://s3-media3.fl.yelpcdn.com/bphoto/18k05WKRdFy__hRxathV7Q/o.jpg", "is_closed": false, "url": "https://www.yelp.com/biz/pazza-notte-new-york-2?adjust_creative=dGXDlVbzOmyJ2a13MnYdVw&utm_campaign=yelp_api_v3&utm_medium=api_v3_business_search&utm_source=dGXDlVbzOmyJ2a13MnYdVw", "review_count": 1051, "categories": [{"alias": "italian", "title": "Italian"}, {"alias": "lounges", "title": "Lounges"}, {"alias": "pizza", "title": "Pizza"}], "rating": 4.0, "coordinates": {"latitude": 40.763454, "longitude": -73.97818}, "transactions": ["pickup", "delivery"], "price": "$$", "location": {"address1": "1375 6th Ave", "address2": "", "address3": "", "city": "New York", "zip_code": "10019", "country": "US", "state": "NY", "display_address": ["1375 6th Ave", "New York, NY 10019"]}, "phone": "+12127656288", "display_phone": "(212) 765-6288", "distance": 374.6249690165224}, {"id": "8oO6j7AlnAbMSJs9Oj9GIw", "alias": "osteria-delbianco-new-york", "name": "Osteria Delbianco", "image_url": "https://s3-media2.fl.yelpcdn.com/bphoto/Nnyph9ukvpcFic7X11Pl1w/o.jpg", "is_closed": false, "url": "https://www.yelp.com/biz/osteria-delbianco-new-york?adjust_creative=dGXDlVbzOmyJ2a13MnYdVw&utm_campaign=yelp_api_v3&utm_medium=api_v3_business_search&utm_source=dGXDlVbzOmyJ2a13MnYdVw", "review_count": 196, "categories": [{"alias": "italian", "title": "Italian"}], "rating": 4.5, "coordinates": {"latitude": 40.7573689002, "longitude": -73.9764462233}, "transactions": ["restaurant_reservation", "delivery", "pickup"], "price": "$$$", "location": {"address1": "22 East 49th St", "address2": null, "address3": "", "city": "New York", "zip_code": "10017", "country": "US", "state": "NY", "display_address": ["22 East 49th St", "New York, NY 10017"]}, "phone": "+12128385972", "display_phone": "(212) 838-5972", "distance": 360.66782436988524}, {"id": "gObd5Qhhv5yL1zBjRoltxg", "alias": "via-toscana-new-york", "name": "Via Toscana", "image_url": "https://s3-media4.fl.yelpcdn.com/bphoto/2je7jnn-5r8vNVvhimdEuw/o.jpg", "is_closed": false, "url": "https://www.yelp.com/biz/via-toscana-new-york?adjust_creative=dGXDlVbzOmyJ2a13MnYdVw&utm_campaign=yelp_api_v3&utm_medium=api_v3_business_search&utm_source=dGXDlVbzOmyJ2a13MnYdVw", "review_count": 12, "categories": [{"alias": "tapas", "title": "Tapas Bars"}, {"alias": "tuscan", "title": "Tuscan"}, {"alias": "pizza", "title": "Pizza"}], "rating": 5.0, "coordinates": {"latitude": 40.7639195, "longitude": -73.98683660000002}, "transactions": ["delivery", "pickup"], "location": {"address1": "344 W 52nd St", "address2": "", "address3": null, "city": "New York", "zip_code": "10019", "country": "US", "state": "NY", "display_address": ["344 W 52nd St", "New York, NY 10019"]}, "phone": "+16469063192", "display_phone": "(646) 906-3192", "distance": 814.016948024145}, {"id": "TWH4MjLtN1fKlF-7n6YXHg", "alias": "lil-frankies-new-york", "name": "Lil Frankie's", "image_url": "https://s3-media3.fl.yelpcdn.com/bphoto/t0OsEVlzDWgM_NMGVHmPiA/o.jpg", "is_closed": false, "url": "https://www.yelp.com/biz/lil-frankies-new-york?adjust_creative=dGXDlVbzOmyJ2a13MnYdVw&utm_campaign=yelp_api_v3&utm_medium=api_v3_business_search&utm_source=dGXDlVbzOmyJ2a13MnYdVw", "review_count": 1487, "categories": [{"alias": "pizza", "title": "Pizza"}, {"alias": "italian", "title": "Italian"}], "rating": 4.0, "coordinates": {"latitude": 40.723625, "longitude": -73.988555}, "transactions": ["delivery", "pickup"], "price": "$$", "location": {"address1": "19 1st Ave", "address2": "", "address3": "", "city": "New York", "zip_code": "10003", "country": "US", "state": "NY", "display_address": ["19 1st Ave", "New York, NY 10003"]}, "phone": "+12124204900", "display_phone": "(212) 420-4900", "distance": 4155.77025381371}, {"id": "vVVmHacu2YAxKfpIjhfd1g", "alias": "norma-new-york-5", "name": "Norma", "image_url": "https://s3-media3.fl.yelpcdn.com/bphoto/qJKt5l2xSBUKOFRA6UOqVg/o.jpg", "is_closed": false, "url": "https://www.yelp.com/biz/norma-new-york-5?adjust_creative=dGXDlVbzOmyJ2a13MnYdVw&utm_campaign=yelp_api_v3&utm_medium=api_v3_business_search&utm_source=dGXDlVbzOmyJ2a13MnYdVw", "review_count": 621, "categories": [{"alias": "italian", "title": "Italian"}, {"alias": "pizza", "title": "Pizza"}], "rating": 4.5, "coordinates": {"latitude": 40.743553, "longitude": -73.980026}, "transactions": ["delivery", "pickup"], "price": "$$", "location": {"address1": "438 3rd Ave", "address2": null, "address3": "", "city": "New York", "zip_code": "10016", "country": "US", "state": "NY", "display_address": ["438 3rd Ave", "New York, NY 10016"]}, "phone": "+12128890600", "display_phone": "(212) 889-0600", "distance": 1852.9569539012346}, {"id": "5F9kZPnAleDYqCeCyvGJPA", "alias": "bad-roman-new-york", "name": "Bad Roman", "image_url": "https://s3-media3.fl.yelpcdn.com/bphoto/cU7SyNOn3RU9axmGoyZ4SQ/o.jpg", "is_closed": false, "url": "https://www.yelp.com/biz/bad-roman-new-york?adjust_creative=dGXDlVbzOmyJ2a13MnYdVw&utm_campaign=yelp_api_v3&utm_medium=api_v3_business_search&utm_source=dGXDlVbzOmyJ2a13MnYdVw", "review_count": 365, "categories": [{"alias": "newamerican", "title": "American (New)"}, {"alias": "italian", "title": "Italian"}], "rating": 4.0, "coordinates": {"latitude": 40.768494, "longitude": -73.983072}, "transactions": [], "price": "$$$$", "location": {"address1": "10 Columbus Cir", "address2": "", "address3": null, "city": "New York", "zip_code": "10019", "country": "US", "state": "NY", "display_address": ["10 Columbus Cir", "New York, NY 10019"]}, "phone": "+12129702033", "display_phone": "(212) 970-2033", "distance": 1007.6176341306971},{"id": "v8y7NLCC25KY_lSbcs3UPA", "alias": "maison-kintaro-new-york-2", "name": "Maison Kintaro", "image_url": "https://s3-media1.fl.yelpcdn.com/bphoto/RZEvRaQYDNcPjCTKM_E0tg/o.jpg", "is_closed": false, "url": "https://www.yelp.com/biz/maison-kintaro-new-york-2?adjust_creative=dGXDlVbzOmyJ2a13MnYdVw&utm_campaign=yelp_api_v3&utm_medium=api_v3_business_search&utm_source=dGXDlVbzOmyJ2a13MnYdVw", "review_count": 72, "categories": [{"alias": "japanese", "title": "Japanese"}], "rating": 4.5, "coordinates": {"latitude": 40.747442163550275, "longitude": -74.00123431589748}, "transactions": ["delivery", "pickup"], "location": {"address1": "401 W 24th St", "address2": null, "address3": null, "city": "New York", "zip_code": "10011", "country": "US", "state": "NY", "display_address": ["401 W 24th St", "New York, NY 10011"]}, "phone": "+13152304533", "display_phone": "(315) 230-4533", "distance": 2384.140782302289}, {"id": "axqp3pGJXnTLgq2QrPyDyQ", "alias": "benemon-new-york", "name": "Benemon", "image_url": "https://s3-media3.fl.yelpcdn.com/bphoto/5ZRHsFgkyoSzac8ofvhvvg/o.jpg", "is_closed": false, "url": "https://www.yelp.com/biz/benemon-new-york?adjust_creative=dGXDlVbzOmyJ2a13MnYdVw&utm_campaign=yelp_api_v3&utm_medium=api_v3_business_search&utm_source=dGXDlVbzOmyJ2a13MnYdVw", "review_count": 715, "categories": [{"alias": "japanese", "title": "Japanese"}, {"alias": "tapasmallplates", "title": "Tapas/Small Plates"}, {"alias": "cocktailbars", "title": "Cocktail Bars"}], "rating": 4.5, "coordinates": {"latitude": 40.72551, "longitude": -73.98838}, "transactions": ["delivery", "restaurant_reservation", "pickup"], "price": "$$", "location": {"address1": "108 E 4th St", "address2": null, "address3": "", "city": "New York", "zip_code": "10003", "country": "US", "state": "NY", "display_address": ["108 E 4th St", "New York, NY 10003"]}, "phone": "+12126143006", "display_phone": "(212) 614-3006", "distance": 3944.676983069744}, {"id": "klAhw3xLQi9GF1tf_HnS7w", "alias": "izakaya-mew-new-york-3", "name": "Izakaya MEW", "image_url": "https://s3-media4.fl.yelpcdn.com/bphoto/452g3hJg1YiWHjFt7TI6aw/o.jpg", "is_closed": false, "url": "https://www.yelp.com/biz/izakaya-mew-new-york-3?adjust_creative=dGXDlVbzOmyJ2a13MnYdVw&utm_campaign=yelp_api_v3&utm_medium=api_v3_business_search&utm_source=dGXDlVbzOmyJ2a13MnYdVw", "review_count": 2872, "categories": [{"alias": "tapas", "title": "Tapas Bars"}, {"alias": "sushi", "title": "Sushi Bars"}, {"alias": "izakaya", "title": "Izakaya"}], "rating": 4.5, "coordinates": {"latitude": 40.750148, "longitude": -73.9863203465939}, "transactions": ["delivery", "pickup"], "price": "$$", "location": {"address1": "53 W 35th St", "address2": "", "address3": "", "city": "New York", "zip_code": "10001", "country": "US", "state": "NY", "display_address": ["53 W 35th St", "New York, NY 10001"]}, "phone": "+16463689384", "display_phone": "(646) 368-9384", "distance": 1298.8043169184014}, {"id": "FlZ1zdVEKWv7dwqm8Uw8-w", "alias": "raku-new-york-7", "name": "Raku", "image_url": "https://s3-media4.fl.yelpcdn.com/bphoto/GEbZnH1jR4n7D5WOJ3urPg/o.jpg", "is_closed": false, "url": "https://www.yelp.com/biz/raku-new-york-7?adjust_creative=dGXDlVbzOmyJ2a13MnYdVw&utm_campaign=yelp_api_v3&utm_medium=api_v3_business_search&utm_source=dGXDlVbzOmyJ2a13MnYdVw", "review_count": 1573, "categories": [{"alias": "japanese", "title": "Japanese"}, {"alias": "noodles", "title": "Noodles"}], "rating": 4.5, "coordinates": {"latitude": 40.7264988089246, "longitude": -73.9866526052356}, "transactions": ["delivery", "pickup"], "price": "$$", "location": {"address1": "342 E 6th St", "address2": "", "address3": "", "city": "New York", "zip_code": "10003", "country": "US", "state": "NY", "display_address": ["342 E 6th St", "New York, NY 10003"]}, "phone": "+12122281324", "display_phone": "(212) 228-1324", "distance": 3811.4430027214194}, {"id": "cT48RskMO_o35Ua0tlifyQ", "alias": "heno-heno-new-york-2", "name": "Heno Heno", "image_url": "https://s3-media2.fl.yelpcdn.com/bphoto/Mbj3ohufWkWmMIRfejctuw/o.jpg", "is_closed": false, "url": "https://www.yelp.com/biz/heno-heno-new-york-2?adjust_creative=dGXDlVbzOmyJ2a13MnYdVw&utm_campaign=yelp_api_v3&utm_medium=api_v3_business_search&utm_source=dGXDlVbzOmyJ2a13MnYdVw", "review_count": 133, "categories": [{"alias": "izakaya", "title": "Izakaya"}, {"alias": "sushi", "title": "Sushi Bars"}, {"alias": "bars", "title": "Bars"}], "rating": 4.5, "coordinates": {"latitude": 40.760512, "longitude": -73.990117}, "transactions": ["delivery", "restaurant_reservation", "pickup"], "location": {"address1": "358 W 46th St", "address2": null, "address3": "", "city": "New York", "zip_code": "10036", "country": "US", "state": "NY", "display_address": ["358 W 46th St", "New York, NY 10036"]}, "phone": "+16463988008", "display_phone": "(646) 398-8008", "distance": 978.5418396174578}, {"id": "diz6_4TVSP6EdWEZCZ0Acg", "alias": "kaoru-new-york", "name": "Kaoru", "image_url": "https://s3-media3.fl.yelpcdn.com/bphoto/7Xv6nQwtb07E_Z-GgqOfUw/o.jpg", "is_closed": false, "url": "https://www.yelp.com/biz/kaoru-new-york?adjust_creative=dGXDlVbzOmyJ2a13MnYdVw&utm_campaign=yelp_api_v3&utm_medium=api_v3_business_search&utm_source=dGXDlVbzOmyJ2a13MnYdVw", "review_count": 489, "categories": [{"alias": "japanese", "title": "Japanese"}], "rating": 4.5, "coordinates": {"latitude": 40.75202, "longitude": -73.96977}, "transactions": ["delivery", "pickup"], "price": "$$", "location": {"address1": "306 E 46th St", "address2": "", "address3": "", "city": "New York", "zip_code": "10017", "country": "US", "state": "NY", "display_address": ["306 E 46th St", "New York, NY 10017"]}, "phone": "+12128670874", "display_phone": "(212) 867-0874", "distance": 1162.9544122492748}, {"id": "zHsK9YUH3lv8VlQEAPw6gA", "alias": "tabata-new-york-4", "name": "Tabata", "image_url": "https://s3-media1.fl.yelpcdn.com/bphoto/FMvh6-QtKOwaQaGLUMovMg/o.jpg", "is_closed": false, "url": "https://www.yelp.com/biz/tabata-new-york-4?adjust_creative=dGXDlVbzOmyJ2a13MnYdVw&utm_campaign=yelp_api_v3&utm_medium=api_v3_business_search&utm_source=dGXDlVbzOmyJ2a13MnYdVw", "review_count": 29, "categories": [{"alias": "japanese", "title": "Japanese"}, {"alias": "bars", "title": "Bars"}], "rating": 4.5, "coordinates": {"latitude": 40.770684, "longitude": -73.957302}, "transactions": ["delivery", "pickup"], "location": {"address1": "1435 2nd Ave", "address2": null, "address3": "", "city": "New York", "zip_code": "10021", "country": "US", "state": "NY", "display_address": ["1435 2nd Ave", "New York, NY 10021"]}, "phone": "+16468337977", "display_phone": "(646) 833-7977", "distance": 2130.015836418163}, {"id": "kwq1W0opBnOYKoUXWYyQ5g", "alias": "momokawa-new-york-2", "name": "Momokawa", "image_url": "https://s3-media2.fl.yelpcdn.com/bphoto/GtvNDstFR-_GKs13lQRSCw/o.jpg", "is_closed": false, "url": "https://www.yelp.com/biz/momokawa-new-york-2?adjust_creative=dGXDlVbzOmyJ2a13MnYdVw&utm_campaign=yelp_api_v3&utm_medium=api_v3_business_search&utm_source=dGXDlVbzOmyJ2a13MnYdVw", "review_count": 238, "categories": [{"alias": "japanese", "title": "Japanese"}, {"alias": "sushi", "title": "Sushi Bars"}, {"alias": "hotpot", "title": "Hot Pot"}], "rating": 4.0, "coordinates": {"latitude": 40.77047, "longitude": -73.9537}, "transactions": ["delivery", "pickup"], "price": "$$$", "location": {"address1": "1466 1st Ave", "address2": "", "address3": null, "city": "New York", "zip_code": "10075", "country": "US", "state": "NY", "display_address": ["1466 1st Ave", "New York, NY 10075"]}, "phone": "+12122560403", "display_phone": "(212) 256-0403", "distance": 2378.743980325199}, {"id": "YC-wGlO0oOkEIaCEDZv-ag", "alias": "yakitori-totto-new-york", "name": "Yakitori Totto", "image_url": "https://s3-media2.fl.yelpcdn.com/bphoto/z--vn2U2bjlg7Bls1DUB2g/o.jpg", "is_closed": false, "url": "https://www.yelp.com/biz/yakitori-totto-new-york?adjust_creative=dGXDlVbzOmyJ2a13MnYdVw&utm_campaign=yelp_api_v3&utm_medium=api_v3_business_search&utm_source=dGXDlVbzOmyJ2a13MnYdVw", "review_count": 1440, "categories": [{"alias": "japanese", "title": "Japanese"}], "rating": 4.0, "coordinates": {"latitude": 40.765375, "longitude": -73.983114}, "transactions": ["delivery", "pickup"], "price": "$$", "location": {"address1": "251 W 55th St", "address2": "Fl 2", "address3": "", "city": "New York", "zip_code": "10019", "country": "US", "state": "NY", "display_address": ["251 W 55th St", "Fl 2", "New York, NY 10019"]}, "phone": "+12122454555", "display_phone": "(212) 245-4555", "distance": 692.9652189141184}, {"id": "dUfKnUnwaYKciyoRzDBLEw", "alias": "izakaya-nana-flushing", "name": "Izakaya Nana", "image_url": "https://s3-media2.fl.yelpcdn.com/bphoto/uqKmQyRQa-r-MKw1Dip4kw/o.jpg", "is_closed": false, "url": "https://www.yelp.com/biz/izakaya-nana-flushing?adjust_creative=dGXDlVbzOmyJ2a13MnYdVw&utm_campaign=yelp_api_v3&utm_medium=api_v3_business_search&utm_source=dGXDlVbzOmyJ2a13MnYdVw", "review_count": 387, "categories": [{"alias": "izakaya", "title": "Izakaya"}], "rating": 4.5, "coordinates": {"latitude": 40.764116, "longitude": -73.824724}, "transactions": ["delivery", "restaurant_reservation", "pickup"], "price": "$$$", "location": {"address1": "141-26 Northern Blvd", "address2": null, "address3": "", "city": "Flushing", "zip_code": "11354", "country": "US", "state": "NY", "display_address": ["141-26 Northern Blvd", "Flushing, NY 11354"]}, "phone": "+17182696866", "display_phone": "(718) 269-6866", "distance": 12955.201528278525}, {"id": "OFfZUS-nu6NDnsWe1B2bUQ", "alias": "tonchin-new-york-2", "name": "Tonchin", "image_url": "https://s3-media2.fl.yelpcdn.com/bphoto/BgQKNO97PzwQSsvmAKHIkA/o.jpg", "is_closed": false, "url": "https://www.yelp.com/biz/tonchin-new-york-2?adjust_creative=dGXDlVbzOmyJ2a13MnYdVw&utm_campaign=yelp_api_v3&utm_medium=api_v3_business_search&utm_source=dGXDlVbzOmyJ2a13MnYdVw", "review_count": 1975, "categories": [{"alias": "ramen", "title": "Ramen"}, {"alias": "izakaya", "title": "Izakaya"}, {"alias": "wine_bars", "title": "Wine Bars"}], "rating": 4.5, "coordinates": {"latitude": 40.7502727, "longitude": -73.9844951}, "transactions": ["delivery", "pickup"], "price": "$$", "location": {"address1": "13 W 36th St", "address2": null, "address3": "", "city": "New York", "zip_code": "10018", "country": "US", "state": "NY", "display_address": ["13 W 36th St", "New York, NY 10018"]}, "phone": "+16466929912", "display_phone": "(646) 692-9912", "distance": 1215.3781230832326}, {"id": "xFp3xSQ43J-i7nmJfNBsZA", "alias": "norikoh-new-york-8", "name": "Norikoh", "image_url": "https://s3-media3.fl.yelpcdn.com/bphoto/DLT5-EvfTq5RNQgybYNDpg/o.jpg", "is_closed": false, "url": "https://www.yelp.com/biz/norikoh-new-york-8?adjust_creative=dGXDlVbzOmyJ2a13MnYdVw&utm_campaign=yelp_api_v3&utm_medium=api_v3_business_search&utm_source=dGXDlVbzOmyJ2a13MnYdVw", "review_count": 679, "categories": [{"alias": "sushi", "title": "Sushi Bars"}, {"alias": "japanese", "title": "Japanese"}], "rating": 4.0, "coordinates": {"latitude": 40.7433, "longitude": -73.99137}, "transactions": ["delivery", "pickup"], "price": "$$", "location": {"address1": "43 W 24th St", "address2": null, "address3": "", "city": "New York", "zip_code": "10010", "country": "US", "state": "NY", "display_address": ["43 W 24th St", "New York, NY 10010"]}, "phone": "+16469227383", "display_phone": "(646) 922-7383", "distance": 2170.3998406049573}, {"id": "7iY35991NhQ1AShJZCNZgA", "alias": "sakagura-new-york", "name": "Sakagura", "image_url": "https://s3-media4.fl.yelpcdn.com/bphoto/UTNso2U3VAiTXdDV98Jbzw/o.jpg", "is_closed": false, "url": "https://www.yelp.com/biz/sakagura-new-york?adjust_creative=dGXDlVbzOmyJ2a13MnYdVw&utm_campaign=yelp_api_v3&utm_medium=api_v3_business_search&utm_source=dGXDlVbzOmyJ2a13MnYdVw", "review_count": 1878, "categories": [{"alias": "japanese", "title": "Japanese"}], "rating": 4.0, "coordinates": {"latitude": 40.7516467024541, "longitude": -73.9729489318165}, "transactions": ["delivery"], "price": "$$$$", "location": {"address1": "211 E 43rd St", "address2": "", "address3": "", "city": "New York", "zip_code": "10017", "country": "US", "state": "NY", "display_address": ["211 E 43rd St", "New York, NY 10017"]}, "phone": "+12129537253", "display_phone": "(212) 953-7253", "distance": 1061.3011139859577}, {"id": "eQ4QUGvuHGBzsOrphsVc6A", "alias": "kimura-new-york", "name": "Kimura", "image_url": "https://s3-media3.fl.yelpcdn.com/bphoto/mljczn7werHwgQX7_cF-rA/o.jpg", "is_closed": false, "url": "https://www.yelp.com/biz/kimura-new-york?adjust_creative=dGXDlVbzOmyJ2a13MnYdVw&utm_campaign=yelp_api_v3&utm_medium=api_v3_business_search&utm_source=dGXDlVbzOmyJ2a13MnYdVw", "review_count": 379, "categories": [{"alias": "japanese", "title": "Japanese"}, {"alias": "hotpot", "title": "Hot Pot"}, {"alias": "sushi", "title": "Sushi Bars"}], "rating": 4.5, "coordinates": {"latitude": 40.72904325062745, "longitude": -73.9882174}, "transactions": ["delivery", "pickup"], "price": "$$$", "location": {"address1": "31 St Marks Pl", "address2": null, "address3": "", "city": "New York", "zip_code": "10003", "country": "US", "state": "NY", "display_address": ["31 St Marks Pl", "New York, NY 10003"]}, "phone": "+19179051864", "display_phone": "(917) 905-1864", "distance": 3561.480602390528}, {"id": "XfOCJ841dL9fPBY_BAyayA", "alias": "soboku-brooklyn", "name": "SOBOKU", "image_url": "https://s3-media3.fl.yelpcdn.com/bphoto/QVgGkxMPo_UHRYxJAG3trg/o.jpg", "is_closed": false, "url": "https://www.yelp.com/biz/soboku-brooklyn?adjust_creative=dGXDlVbzOmyJ2a13MnYdVw&utm_campaign=yelp_api_v3&utm_medium=api_v3_business_search&utm_source=dGXDlVbzOmyJ2a13MnYdVw", "review_count": 21, "categories": [{"alias": "japanese", "title": "Japanese"}], "rating": 5.0, "coordinates": {"latitude": 40.682529, "longitude": -73.99346}, "transactions": ["delivery", "pickup"], "location": {"address1": "276 Smith St", "address2": null, "address3": "", "city": "Brooklyn", "zip_code": "11231", "country": "US", "state": "NY", "display_address": ["276 Smith St", "Brooklyn, NY 11231"]}, "phone": "+19179090328", "display_phone": "(917) 909-0328", "distance": 8727.789858404223}, {"id": "5ZgCfc1_fotAKUp7n3YJkQ", "alias": "towa-new-york-3", "name": "Towa", "image_url": "https://s3-media4.fl.yelpcdn.com/bphoto/BOoLPUB53FHS6mS3yNl6yw/o.jpg", "is_closed": false, "url": "https://www.yelp.com/biz/towa-new-york-3?adjust_creative=dGXDlVbzOmyJ2a13MnYdVw&utm_campaign=yelp_api_v3&utm_medium=api_v3_business_search&utm_source=dGXDlVbzOmyJ2a13MnYdVw", "review_count": 92, "categories": [{"alias": "japanese", "title": "Japanese"}, {"alias": "sushi", "title": "Sushi Bars"}, {"alias": "cocktailbars", "title": "Cocktail Bars"}], "rating": 4.5, "coordinates": {"latitude": 40.7442, "longitude": -73.99062}, "transactions": [], "price": "$$$", "location": {"address1": "36 W 26th St", "address2": null, "address3": "", "city": "New York", "zip_code": "10010", "country": "US", "state": "NY", "display_address": ["36 W 26th St", "New York, NY 10010"]}, "phone": "+16463516258", "display_phone": "(646) 351-6258", "distance": 2048.370507661524}, {"id": "6lUsFj0KCao678o9L7QwUw", "alias": "hatsuhana-new-york", "name": "Hatsuhana", "image_url": "https://s3-media2.fl.yelpcdn.com/bphoto/BgU4cogcT7JT9raJ59vlwQ/o.jpg", "is_closed": false, "url": "https://www.yelp.com/biz/hatsuhana-new-york?adjust_creative=dGXDlVbzOmyJ2a13MnYdVw&utm_campaign=yelp_api_v3&utm_medium=api_v3_business_search&utm_source=dGXDlVbzOmyJ2a13MnYdVw", "review_count": 1537, "categories": [{"alias": "japanese", "title": "Japanese"}, {"alias": "sushi", "title": "Sushi Bars"}], "rating": 4.0, "coordinates": {"latitude": 40.75703, "longitude": -73.97692}, "transactions": ["restaurant_reservation", "delivery", "pickup"], "price": "$$$", "location": {"address1": "17 E 48th St", "address2": "", "address3": "", "city": "New York", "zip_code": "10017", "country": "US", "state": "NY", "display_address": ["17 E 48th St", "New York, NY 10017"]}, "phone": "+12123553345", "display_phone": "(212) 355-3345", "distance": 378.1782315166929}, {"id": "kN3rkbjvqkY62CDRYUVz4g", "alias": "yopparai-new-york", "name": "Yopparai", "image_url": "https://s3-media1.fl.yelpcdn.com/bphoto/-Dz8UMOELWlFJTjcXZQy6w/o.jpg", "is_closed": false, "url": "https://www.yelp.com/biz/yopparai-new-york?adjust_creative=dGXDlVbzOmyJ2a13MnYdVw&utm_campaign=yelp_api_v3&utm_medium=api_v3_business_search&utm_source=dGXDlVbzOmyJ2a13MnYdVw", "review_count": 266, "categories": [{"alias": "izakaya", "title": "Izakaya"}], "rating": 4.5, "coordinates": {"latitude": 40.71975013980203, "longitude": -73.98488557728082}, "transactions": ["delivery", "pickup"], "price": "$$$", "location": {"address1": "49 Clinton St", "address2": "Ground Floor", "address3": "", "city": "New York", "zip_code": "10002", "country": "US", "state": "NY", "display_address": ["49 Clinton St", "Ground Floor", "New York, NY 10002"]}, "phone": "+12127777253", "display_phone": "(212) 777-7253", "distance": 4531.516843309329}, {"id": "3QIFBLKp2Z9zA-PXlUEQlg", "alias": "okatte-tanto-ny-new-york", "name": "Okatte Tanto NY", "image_url": "https://s3-media4.fl.yelpcdn.com/bphoto/zMcbrSejic3cPb2yT6Rc4Q/o.jpg", "is_closed": false, "url": "https://www.yelp.com/biz/okatte-tanto-ny-new-york?adjust_creative=dGXDlVbzOmyJ2a13MnYdVw&utm_campaign=yelp_api_v3&utm_medium=api_v3_business_search&utm_source=dGXDlVbzOmyJ2a13MnYdVw", "review_count": 18, "categories": [{"alias": "japanese", "title": "Japanese"}], "rating": 4.5, "coordinates": {"latitude": 40.75455, "longitude": -73.96941}, "transactions": ["delivery"], "location": {"address1": "249 E 49th St", "address2": "", "address3": null, "city": "New York", "zip_code": "10017", "country": "US", "state": "NY", "display_address": ["249 E 49th St", "New York, NY 10017"]}, "phone": "", "display_phone": "", "distance": 989.2835928571462}, {"id": "HZWHBfeuP4Fb6y8b8uqnbA", "alias": "sushi-yasaka-new-york", "name": "Sushi Yasaka", "image_url": "https://s3-media4.fl.yelpcdn.com/bphoto/_AXYcM-4epAtPfuDjan4UA/o.jpg", "is_closed": false, "url": "https://www.yelp.com/biz/sushi-yasaka-new-york?adjust_creative=dGXDlVbzOmyJ2a13MnYdVw&utm_campaign=yelp_api_v3&utm_medium=api_v3_business_search&utm_source=dGXDlVbzOmyJ2a13MnYdVw", "review_count": 2020, "categories": [{"alias": "japanese", "title": "Japanese"}, {"alias": "sushi", "title": "Sushi Bars"}], "rating": 4.0, "coordinates": {"latitude": 40.779583, "longitude": -73.983482}, "transactions": ["delivery", "pickup"], "price": "$$", "location": {"address1": "251 W 72nd St", "address2": "", "address3": "", "city": "New York", "zip_code": "10023", "country": "US", "state": "NY", "display_address": ["251 W 72nd St", "New York, NY 10023"]}, "phone": "+12124968460", "display_phone": "(212) 496-8460", "distance": 2194.109769610794}, {"id": "VzstANC68PM1BbyOcDXEtw", "alias": "donburiya-new-york-2", "name": "Donburiya", "image_url": "https://s3-media1.fl.yelpcdn.com/bphoto/iE66wlw2f3QrK2oybK2tIA/o.jpg", "is_closed": false, "url": "https://www.yelp.com/biz/donburiya-new-york-2?adjust_creative=dGXDlVbzOmyJ2a13MnYdVw&utm_campaign=yelp_api_v3&utm_medium=api_v3_business_search&utm_source=dGXDlVbzOmyJ2a13MnYdVw", "review_count": 444, "categories": [{"alias": "japanese", "title": "Japanese"}, {"alias": "seafood", "title": "Seafood"}, {"alias": "desserts", "title": "Desserts"}], "rating": 4.0, "coordinates": {"latitude": 40.76528, "longitude": -73.98326}, "transactions": ["delivery", "pickup"], "price": "$$", "location": {"address1": "253 W 55th St", "address2": "", "address3": "", "city": "New York", "zip_code": "10019", "country": "US", "state": "NY", "display_address": ["253 W 55th St", "New York, NY 10019"]}, "phone": "+12129807909", "display_phone": "(212) 980-7909", "distance": 693.7616659149346}, {"id": "qm1J_dPA5IHij1oAnoZwHw", "alias": "nonono-new-york-6", "name": "nonono", "image_url": "https://s3-media1.fl.yelpcdn.com/bphoto/TqFGBv0yqN6D4cneKOTTJA/o.jpg", "is_closed": false, "url": "https://www.yelp.com/biz/nonono-new-york-6?adjust_creative=dGXDlVbzOmyJ2a13MnYdVw&utm_campaign=yelp_api_v3&utm_medium=api_v3_business_search&utm_source=dGXDlVbzOmyJ2a13MnYdVw", "review_count": 1173, "categories": [{"alias": "izakaya", "title": "Izakaya"}, {"alias": "cocktailbars", "title": "Cocktail Bars"}], "rating": 4.0, "coordinates": {"latitude": 40.74541891599005, "longitude": -73.98492926795281}, "transactions": ["delivery", "pickup"], "price": "$$$", "location": {"address1": "118 Madison Ave", "address2": "", "address3": "", "city": "New York", "zip_code": "10016", "country": "US", "state": "NY", "display_address": ["118 Madison Ave", "New York, NY 10016"]}, "phone": "+16467073227", "display_phone": "(646) 707-3227", "distance": 1732.0687838771119}, {"id": "_IkMfWpOkQXRZtJAYJUJIw", "alias": "hama-japanese-cuisine-new-york", "name": "Hama Japanese Cuisine", "image_url": "https://s3-media2.fl.yelpcdn.com/bphoto/3YnpzXHaeugtrc9XqHiF2g/o.jpg", "is_closed": false, "url": "https://www.yelp.com/biz/hama-japanese-cuisine-new-york?adjust_creative=dGXDlVbzOmyJ2a13MnYdVw&utm_campaign=yelp_api_v3&utm_medium=api_v3_business_search&utm_source=dGXDlVbzOmyJ2a13MnYdVw", "review_count": 429, "categories": [{"alias": "sushi", "title": "Sushi Bars"}, {"alias": "japanese", "title": "Japanese"}], "rating": 4.0, "coordinates": {"latitude": 40.7597846984863, "longitude": -73.9776382446289}, "transactions": ["delivery", "restaurant_reservation", "pickup"], "price": "$$", "location": {"address1": "11 W 51st St", "address2": "", "address3": "", "city": "New York", "zip_code": "10019", "country": "US", "state": "NY", "display_address": ["11 W 51st St", "New York, NY 10019"]}, "phone": "+12127577103", "display_phone": "(212) 757-7103", "distance": 86.89110493887978}, {"id": "NRJq2BNcbjqAyxUB_bw7gw", "alias": "momoya-new-york", "name": "Momoya", "image_url": "https://s3-media1.fl.yelpcdn.com/bphoto/ff4nvXd0UTpc1GwNIqY_KQ/o.jpg", "is_closed": false, "url": "https://www.yelp.com/biz/momoya-new-york?adjust_creative=dGXDlVbzOmyJ2a13MnYdVw&utm_campaign=yelp_api_v3&utm_medium=api_v3_business_search&utm_source=dGXDlVbzOmyJ2a13MnYdVw", "review_count": 822, "categories": [{"alias": "sushi", "title": "Sushi Bars"}, {"alias": "japanese", "title": "Japanese"}, {"alias": "salad", "title": "Salad"}], "rating": 4.0, "coordinates": {"latitude": 40.7426255196333, "longitude": -73.9966481924057}, "transactions": ["delivery"], "price": "$$", "location": {"address1": "185 7th Ave", "address2": null, "address3": "", "city": "New York", "zip_code": "10011", "country": "US", "state": "NY", "display_address": ["185 7th Ave", "New York, NY 10011"]}, "phone": "+12129894466", "display_phone": "(212) 989-4466", "distance": 2475.6414268096987}, {"id": "wjIyCBEpCG_HRp8veiI0YQ", "alias": "ootoya-times-square-new-york-2", "name": "Ootoya Times Square", "image_url": "https://s3-media2.fl.yelpcdn.com/bphoto/kxWPsD6XW9do2ZqviCuheg/o.jpg", "is_closed": false, "url": "https://www.yelp.com/biz/ootoya-times-square-new-york-2?adjust_creative=dGXDlVbzOmyJ2a13MnYdVw&utm_campaign=yelp_api_v3&utm_medium=api_v3_business_search&utm_source=dGXDlVbzOmyJ2a13MnYdVw", "review_count": 1106, "categories": [{"alias": "sushi", "title": "Sushi Bars"}, {"alias": "hotpot", "title": "Hot Pot"}, {"alias": "japacurry", "title": "Japanese Curry"}], "rating": 4.0, "coordinates": {"latitude": 40.754924, "longitude": -73.985945}, "transactions": ["delivery", "pickup"], "price": "$$", "location": {"address1": "141 W 41st St", "address2": "", "address3": "", "city": "New York", "zip_code": "10036", "country": "US", "state": "NY", "display_address": ["141 W 41st St", "New York, NY 10036"]}, "phone": "+12127040833", "display_phone": "(212) 704-0833", "distance": 861.1936095685786}, {"id": "OLSSJIp8pu5UlugTF7tuHA", "alias": "ootoya-chelsea-new-york", "name": "Ootoya Chelsea", "image_url": "https://s3-media3.fl.yelpcdn.com/bphoto/bBYOWD2DUwWaML3ADlcZ9Q/o.jpg", "is_closed": false, "url": "https://www.yelp.com/biz/ootoya-chelsea-new-york?adjust_creative=dGXDlVbzOmyJ2a13MnYdVw&utm_campaign=yelp_api_v3&utm_medium=api_v3_business_search&utm_source=dGXDlVbzOmyJ2a13MnYdVw", "review_count": 1543, "categories": [{"alias": "sushi", "title": "Sushi Bars"}, {"alias": "hotpot", "title": "Hot Pot"}, {"alias": "japacurry", "title": "Japanese Curry"}], "rating": 4.0, "coordinates": {"latitude": 40.73881, "longitude": -73.99279}, "transactions": ["delivery", "restaurant_reservation", "pickup"], "price": "$$", "location": {"address1": "8 W 18th St", "address2": "", "address3": "", "city": "New York", "zip_code": "10011", "country": "US", "state": "NY", "display_address": ["8 W 18th St", "New York, NY 10011"]}, "phone": "+12122550018", "display_phone": "(212) 255-0018", "distance": 2665.7334170720537}, {"id": "_F29-1dkiBmDPSaKQ9_O0Q", "alias": "hakata-tonton-new-york-7", "name": "Hakata Tonton", "image_url": "https://s3-media3.fl.yelpcdn.com/bphoto/b7TR_0gULGWB76o7TD0Bhw/o.jpg", "is_closed": false, "url": "https://www.yelp.com/biz/hakata-tonton-new-york-7?adjust_creative=dGXDlVbzOmyJ2a13MnYdVw&utm_campaign=yelp_api_v3&utm_medium=api_v3_business_search&utm_source=dGXDlVbzOmyJ2a13MnYdVw", "review_count": 173, "categories": [{"alias": "japanese", "title": "Japanese"}], "rating": 4.0, "coordinates": {"latitude": 40.749981, "longitude": -73.985719}, "transactions": [], "location": {"address1": "35 W 35th St", "address2": null, "address3": null, "city": "New York", "zip_code": "10001", "country": "US", "state": "NY", "display_address": ["35 W 35th St", "New York, NY 10001"]}, "phone": "+19172616536", "display_phone": "(917) 261-6536", "distance": 1291.2109403352863}, {"id": "g2Y6tEvxajhphg6mnUd7zQ", "alias": "hakurakuso-new-york", "name": "Hakurakuso", "image_url": "https://s3-media3.fl.yelpcdn.com/bphoto/LFybmxFleTbUjZyHtKzs1w/o.jpg", "is_closed": false, "url": "https://www.yelp.com/biz/hakurakuso-new-york?adjust_creative=dGXDlVbzOmyJ2a13MnYdVw&utm_campaign=yelp_api_v3&utm_medium=api_v3_business_search&utm_source=dGXDlVbzOmyJ2a13MnYdVw", "review_count": 19, "categories": [{"alias": "japanese", "title": "Japanese"}, {"alias": "sushi", "title": "Sushi Bars"}], "rating": 4.0, "coordinates": {"latitude": 40.75547, "longitude": -73.97021}, "transactions": [], "location": {"address1": "208 E 50th St", "address2": "", "address3": null, "city": "New York", "zip_code": "10022", "country": "US", "state": "NY", "display_address": ["208 E 50th St", "New York, NY 10022"]}, "phone": "+19176134567", "display_phone": "(917) 613-4567", "distance": 869.6397671147969}, {"id": "uCXsqMEfD12Rlmp1H09_Nw", "alias": "omakase-sushi-dairo-new-york", "name": "Omakase Sushi Dairo", "image_url": "https://s3-media3.fl.yelpcdn.com/bphoto/tUAcbtH0pF9FTCto4k0aZQ/o.jpg", "is_closed": false, "url": "https://www.yelp.com/biz/omakase-sushi-dairo-new-york?adjust_creative=dGXDlVbzOmyJ2a13MnYdVw&utm_campaign=yelp_api_v3&utm_medium=api_v3_business_search&utm_source=dGXDlVbzOmyJ2a13MnYdVw", "review_count": 104, "categories": [{"alias": "japanese", "title": "Japanese"}, {"alias": "sushi", "title": "Sushi Bars"}, {"alias": "soup", "title": "Soup"}], "rating": 5.0, "coordinates": {"latitude": 40.73601, "longitude": -73.98542}, "transactions": ["delivery", "restaurant_reservation", "pickup"], "location": {"address1": "208 3rd Ave", "address2": null, "address3": "", "city": "New York", "zip_code": "10003", "country": "US", "state": "NY", "display_address": ["208 3rd Ave", "New York, NY 10003"]}, "phone": "+12125294193", "display_phone": "(212) 529-4193", "distance": 2752.4662070990494}, {"id": "wpT1QU7PSQgQQ1DkzI00JA", "alias": "izakaya-toribar-new-york", "name": "Izakaya Toribar", "image_url": "https://s3-media3.fl.yelpcdn.com/bphoto/BLeJxuHmu9HYpnxFQn4HNw/o.jpg", "is_closed": false, "url": "https://www.yelp.com/biz/izakaya-toribar-new-york?adjust_creative=dGXDlVbzOmyJ2a13MnYdVw&utm_campaign=yelp_api_v3&utm_medium=api_v3_business_search&utm_source=dGXDlVbzOmyJ2a13MnYdVw", "review_count": 174, "categories": [{"alias": "tapasmallplates", "title": "Tapas/Small Plates"}, {"alias": "izakaya", "title": "Izakaya"}, {"alias": "bars", "title": "Bars"}], "rating": 4.0, "coordinates": {"latitude": 40.759641, "longitude": -73.9685558}, "transactions": ["delivery", "pickup"], "price": "$$", "location": {"address1": "164 E 56th St", "address2": null, "address3": "", "city": "New York", "zip_code": "10022", "country": "US", "state": "NY", "display_address": ["164 E 56th St", "New York, NY 10022"]}, "phone": "+16467670029", "display_phone": "(646) 767-0029", "distance": 840.0057966679174}, {"id": "lEH8EUPX3Zn_trHauIycYw", "alias": "aoi-kitchen-new-york", "name": "Aoi Kitchen", "image_url": "https://s3-media3.fl.yelpcdn.com/bphoto/7kzfltV_iCmM5dOm3BNYCQ/o.jpg", "is_closed": false, "url": "https://www.yelp.com/biz/aoi-kitchen-new-york?adjust_creative=dGXDlVbzOmyJ2a13MnYdVw&utm_campaign=yelp_api_v3&utm_medium=api_v3_business_search&utm_source=dGXDlVbzOmyJ2a13MnYdVw", "review_count": 254, "categories": [{"alias": "izakaya", "title": "Izakaya"}, {"alias": "japacurry", "title": "Japanese Curry"}], "rating": 4.5, "coordinates": {"latitude": 40.72683167, "longitude": -73.98754333}, "transactions": ["delivery", "pickup"], "price": "$$", "location": {"address1": "320 E 6th St", "address2": "", "address3": null, "city": "New York", "zip_code": "10003", "country": "US", "state": "NY", "display_address": ["320 E 6th St", "New York, NY 10003"]}, "phone": "+16464540084", "display_phone": "(646) 454-0084", "distance": 3791.929352392537}, {"id": "i8ejDDR4COtukAAA1Ls5fw", "alias": "soba-ya-new-york", "name": "Soba-ya", "image_url": "https://s3-media3.fl.yelpcdn.com/bphoto/tRp07xFhPFLZ324K3WiZlQ/o.jpg", "is_closed": false, "url": "https://www.yelp.com/biz/soba-ya-new-york?adjust_creative=dGXDlVbzOmyJ2a13MnYdVw&utm_campaign=yelp_api_v3&utm_medium=api_v3_business_search&utm_source=dGXDlVbzOmyJ2a13MnYdVw", "review_count": 1563, "categories": [{"alias": "japanese", "title": "Japanese"}, {"alias": "noodles", "title": "Noodles"}], "rating": 4.0, "coordinates": {"latitude": 40.72965, "longitude": -73.9878899}, "transactions": ["delivery", "pickup"], "price": "$$", "location": {"address1": "229 E 9th St", "address2": "", "address3": "", "city": "New York", "zip_code": "10003", "country": "US", "state": "NY", "display_address": ["229 E 9th St", "New York, NY 10003"]}, "phone": "+12125336966", "display_phone": "(212) 533-6966", "distance": 3490.091897782256}, {"id": "9QK3vhI04Q8ylqk49C3JcQ", "alias": "rule-of-thirds-brooklyn", "name": "Rule of Thirds", "image_url": "https://s3-media3.fl.yelpcdn.com/bphoto/qLyoUxBjHqg7P54kaOze-w/o.jpg", "is_closed": false, "url": "https://www.yelp.com/biz/rule-of-thirds-brooklyn?adjust_creative=dGXDlVbzOmyJ2a13MnYdVw&utm_campaign=yelp_api_v3&utm_medium=api_v3_business_search&utm_source=dGXDlVbzOmyJ2a13MnYdVw", "review_count": 595, "categories": [{"alias": "japanese", "title": "Japanese"}, {"alias": "breakfast_brunch", "title": "Breakfast & Brunch"}, {"alias": "cocktailbars", "title": "Cocktail Bars"}], "rating": 4.0, "coordinates": {"latitude": 40.724706, "longitude": -73.955017}, "transactions": ["delivery", "pickup"], "location": {"address1": "171 Banker St", "address2": null, "address3": null, "city": "Brooklyn", "zip_code": "11222", "country": "US", "state": "NY", "display_address": ["171 Banker St", "Brooklyn, NY 11222"]}, "phone": "+13473346684", "display_phone": "(347) 334-6684", "distance": 4411.435894885579}, {"id": "f48yzy50jQDH7X5xFAluOw", "alias": "tsukimi-new-york", "name": "Tsukimi", "image_url": "https://s3-media3.fl.yelpcdn.com/bphoto/iw-3hXNcAQh98d7ZkknPSQ/o.jpg", "is_closed": false, "url": "https://www.yelp.com/biz/tsukimi-new-york?adjust_creative=dGXDlVbzOmyJ2a13MnYdVw&utm_campaign=yelp_api_v3&utm_medium=api_v3_business_search&utm_source=dGXDlVbzOmyJ2a13MnYdVw", "review_count": 58, "categories": [{"alias": "japanese", "title": "Japanese"}], "rating": 5.0, "coordinates": {"latitude": 40.72908, "longitude": -73.98541}, "transactions": ["delivery", "pickup"], "price": "$$$$", "location": {"address1": "228 East 10th St", "address2": null, "address3": "", "city": "New York", "zip_code": "10003", "country": "US", "state": "NY", "display_address": ["228 East 10th St", "New York, NY 10003"]}, "phone": "", "display_phone": "", "distance": 3516.9172325305967}, {"id": "BPZfuPvSxCfoppU4lPFm0Q", "alias": "domodomo-new-york-new-york-4", "name": "DOMODOMO - New York", "image_url": "https://s3-media1.fl.yelpcdn.com/bphoto/YX89PDM_-aBCL2USyNyhuw/o.jpg", "is_closed": false, "url": "https://www.yelp.com/biz/domodomo-new-york-new-york-4?adjust_creative=dGXDlVbzOmyJ2a13MnYdVw&utm_campaign=yelp_api_v3&utm_medium=api_v3_business_search&utm_source=dGXDlVbzOmyJ2a13MnYdVw", "review_count": 1591, "categories": [{"alias": "japanese", "title": "Japanese"}, {"alias": "sushi", "title": "Sushi Bars"}], "rating": 4.0, "coordinates": {"latitude": 40.7280299, "longitude": -74.00167}, "transactions": ["delivery"], "price": "$$$", "location": {"address1": "140 W Houston St", "address2": null, "address3": "", "city": "New York", "zip_code": "10012", "country": "US", "state": "NY", "display_address": ["140 W Houston St", "New York, NY 10012"]}, "phone": "+16467070301", "display_phone": "(646) 707-0301", "distance": 4076.035977454668}, {"id": "Brs_MJhAXe60iMnlpeqkKA", "alias": "yakiniku-west-new-york", "name": "Yakiniku West", "image_url": "https://s3-media1.fl.yelpcdn.com/bphoto/-fupV0FUFVEfcBtW9FaNNA/o.jpg", "is_closed": false, "url": "https://www.yelp.com/biz/yakiniku-west-new-york?adjust_creative=dGXDlVbzOmyJ2a13MnYdVw&utm_campaign=yelp_api_v3&utm_medium=api_v3_business_search&utm_source=dGXDlVbzOmyJ2a13MnYdVw", "review_count": 769, "categories": [{"alias": "bbq", "title": "Barbeque"}, {"alias": "izakaya", "title": "Izakaya"}], "rating": 4.0, "coordinates": {"latitude": 40.72965099486931, "longitude": -73.98855901656697}, "transactions": ["delivery", "restaurant_reservation", "pickup"], "price": "$$", "location": {"address1": "218 E 9th St", "address2": "", "address3": "", "city": "New York", "zip_code": "10003", "country": "US", "state": "NY", "display_address": ["218 E 9th St", "New York, NY 10003"]}, "phone": "+16465968027", "display_phone": "(646) 596-8027", "distance": 3502.596487028878}, {"id": "O1XrvIq-6IlLunLYEjOiFQ", "alias": "kushi-kushi-yaki-new-york", "name": "Kushi Kushi Yaki", "image_url": "https://s3-media4.fl.yelpcdn.com/bphoto/mDV-AlivKt9Fqe41WjxQzA/o.jpg", "is_closed": false, "url": "https://www.yelp.com/biz/kushi-kushi-yaki-new-york?adjust_creative=dGXDlVbzOmyJ2a13MnYdVw&utm_campaign=yelp_api_v3&utm_medium=api_v3_business_search&utm_source=dGXDlVbzOmyJ2a13MnYdVw", "review_count": 150, "categories": [{"alias": "tapasmallplates", "title": "Tapas/Small Plates"}, {"alias": "izakaya", "title": "Izakaya"}, {"alias": "ramen", "title": "Ramen"}], "rating": 4.5, "coordinates": {"latitude": 40.747266, "longitude": -73.9861784}, "transactions": ["delivery", "pickup"], "price": "$$", "location": {"address1": "2 W 32nd St", "address2": null, "address3": "", "city": "New York", "zip_code": "10001", "country": "US", "state": "NY", "display_address": ["2 W 32nd St", "New York, NY 10001"]}, "phone": "+12122793075", "display_phone": "(212) 279-3075", "distance": 1578.4314049876064}, {"id": "l_RAv09V67j-Hm9dyZxWhw", "alias": "tomi-jazz-new-york", "name": "Tomi Jazz", "image_url": "https://s3-media1.fl.yelpcdn.com/bphoto/lHthk1geB6QnmbQx9nJTJA/o.jpg", "is_closed": false, "url": "https://www.yelp.com/biz/tomi-jazz-new-york?adjust_creative=dGXDlVbzOmyJ2a13MnYdVw&utm_campaign=yelp_api_v3&utm_medium=api_v3_business_search&utm_source=dGXDlVbzOmyJ2a13MnYdVw", "review_count": 760, "categories": [{"alias": "japanese", "title": "Japanese"}, {"alias": "jazzandblues", "title": "Jazz & Blues"}], "rating": 4.5, "coordinates": {"latitude": 40.75725, "longitude": -73.96774}, "transactions": ["delivery", "pickup"], "price": "$$", "location": {"address1": "239 E 53rd St", "address2": null, "address3": "", "city": "New York", "zip_code": "10022", "country": "US", "state": "NY", "display_address": ["239 E 53rd St", "New York, NY 10022"]}, "phone": "+16464971254", "display_phone": "(646) 497-1254", "distance": 962.9925467318975}, {"id": "3paq_lNru7Dkdjg5q97UAw", "alias": "j-s-kitchen-new-york-new-york", "name": "J\u2019s Kitchen New York", "image_url": "https://s3-media1.fl.yelpcdn.com/bphoto/Ykz-pxQ5vfHWpIr3k2y-zw/o.jpg", "is_closed": false, "url": "https://www.yelp.com/biz/j-s-kitchen-new-york-new-york?adjust_creative=dGXDlVbzOmyJ2a13MnYdVw&utm_campaign=yelp_api_v3&utm_medium=api_v3_business_search&utm_source=dGXDlVbzOmyJ2a13MnYdVw", "review_count": 37, "categories": [{"alias": "japacurry", "title": "Japanese Curry"}, {"alias": "ramen", "title": "Ramen"}], "rating": 4.5, "coordinates": {"latitude": 40.73230536889889, "longitude": -73.98224600204243}, "transactions": ["delivery", "pickup"], "price": "$$", "location": {"address1": "261 First Ave", "address2": "", "address3": null, "city": "New York", "zip_code": "10003", "country": "US", "state": "NY", "display_address": ["261 First Ave", "New York, NY 10003"]}, "phone": "+19172620434", "display_phone": "(917) 262-0434", "distance": 3119.3961476383643}, {"id": "7OMGEtFWT6sdd9TVuoGqJQ", "alias": "okonomi-brooklyn", "name": "Okonomi", "image_url": "https://s3-media2.fl.yelpcdn.com/bphoto/AA9rsmxAa6hZcTCVZnxaUw/o.jpg", "is_closed": false, "url": "https://www.yelp.com/biz/okonomi-brooklyn?adjust_creative=dGXDlVbzOmyJ2a13MnYdVw&utm_campaign=yelp_api_v3&utm_medium=api_v3_business_search&utm_source=dGXDlVbzOmyJ2a13MnYdVw", "review_count": 531, "categories": [{"alias": "japanese", "title": "Japanese"}, {"alias": "seafood", "title": "Seafood"}], "rating": 4.5, "coordinates": {"latitude": 40.712622, "longitude": -73.9487843}, "transactions": ["delivery", "pickup"], "price": "$$$", "location": {"address1": "150 Ainslie St", "address2": "", "address3": "", "city": "Brooklyn", "zip_code": "11211", "country": "US", "state": "NY", "display_address": ["150 Ainslie St", "Brooklyn, NY 11211"]}, "phone": "+19292950480", "display_phone": "(929) 295-0480", "distance": 5854.4623803730265}, {"id": "-J8VuX3wGrYSOBu2G0hMsw", "alias": "katsu-hama-new-york", "name": "Katsu-Hama", "image_url": "https://s3-media3.fl.yelpcdn.com/bphoto/496l921LQRGO5fyZYQQOVA/o.jpg", "is_closed": false, "url": "https://www.yelp.com/biz/katsu-hama-new-york?adjust_creative=dGXDlVbzOmyJ2a13MnYdVw&utm_campaign=yelp_api_v3&utm_medium=api_v3_business_search&utm_source=dGXDlVbzOmyJ2a13MnYdVw", "review_count": 1625, "categories": [{"alias": "japanese", "title": "Japanese"}], "rating": 4.0, "coordinates": {"latitude": 40.75638, "longitude": -73.97759}, "transactions": ["delivery", "pickup"], "price": "$$", "location": {"address1": "11 E 47th St", "address2": "", "address3": "", "city": "New York", "zip_code": "10017", "country": "US", "state": "NY", "display_address": ["11 E 47th St", "New York, NY 10017"]}, "phone": "+12127585909", "display_phone": "(212) 758-5909", "distance": 425.60730387740625}, {"id": "8NVN6Nldm7AGoGaABBZMRw", "alias": "izakaya-nomad-new-york", "name": "Izakaya NoMad", "image_url": "https://s3-media1.fl.yelpcdn.com/bphoto/x6LU7HmGUVlry7lIP76P8A/o.jpg", "is_closed": false, "url": "https://www.yelp.com/biz/izakaya-nomad-new-york?adjust_creative=dGXDlVbzOmyJ2a13MnYdVw&utm_campaign=yelp_api_v3&utm_medium=api_v3_business_search&utm_source=dGXDlVbzOmyJ2a13MnYdVw", "review_count": 740, "categories": [{"alias": "gastropubs", "title": "Gastropubs"}, {"alias": "izakaya", "title": "Izakaya"}, {"alias": "bars", "title": "Bars"}], "rating": 4.0, "coordinates": {"latitude": 40.74409, "longitude": -73.98945}, "transactions": ["delivery", "pickup"], "price": "$$", "location": {"address1": "13 W 26th St", "address2": "", "address3": "", "city": "New York", "zip_code": "10010", "country": "US", "state": "NY", "display_address": ["13 W 26th St", "New York, NY 10010"]}, "phone": "+12122136258", "display_phone": "(212) 213-6258", "distance": 2010.1839108822005}, {"id": "ax4INkzwL__-d_kGJfcA-w", "alias": "kaikagetsu-nyc-new-york-2", "name": "Kaikagetsu NYC", "image_url": "https://s3-media3.fl.yelpcdn.com/bphoto/vtl3gL8XoiPNV-MwPvEuVQ/o.jpg", "is_closed": false, "url": "https://www.yelp.com/biz/kaikagetsu-nyc-new-york-2?adjust_creative=dGXDlVbzOmyJ2a13MnYdVw&utm_campaign=yelp_api_v3&utm_medium=api_v3_business_search&utm_source=dGXDlVbzOmyJ2a13MnYdVw", "review_count": 143, "categories": [{"alias": "japanese", "title": "Japanese"}], "rating": 4.5, "coordinates": {"latitude": 40.72104, "longitude": -73.98848}, "transactions": ["delivery"], "price": "$$$$", "location": {"address1": "162 Orchard St", "address2": "", "address3": null, "city": "New York", "zip_code": "10002", "country": "US", "state": "NY", "display_address": ["162 Orchard St", "New York, NY 10002"]}, "phone": "+16465903900", "display_phone": "(646) 590-3900", "distance": 4437.31954715862}, {"id": "J9UA6rzI5WW_cDGjwDnF5g", "alias": "tsuru-ton-tan-new-york", "name": "Tsuru Ton Tan", "image_url": "https://s3-media3.fl.yelpcdn.com/bphoto/c9hcLCpECKyUOT2eBXKH3A/o.jpg", "is_closed": false, "url": "https://www.yelp.com/biz/tsuru-ton-tan-new-york?adjust_creative=dGXDlVbzOmyJ2a13MnYdVw&utm_campaign=yelp_api_v3&utm_medium=api_v3_business_search&utm_source=dGXDlVbzOmyJ2a13MnYdVw", "review_count": 2314, "categories": [{"alias": "japanese", "title": "Japanese"}, {"alias": "noodles", "title": "Noodles"}, {"alias": "sushi", "title": "Sushi Bars"}], "rating": 4.0, "coordinates": {"latitude": 40.73678, "longitude": -73.9910699}, "transactions": ["delivery", "pickup"], "price": "$$", "location": {"address1": "21 E 16th St", "address2": "", "address3": "", "city": "New York", "zip_code": "10003", "country": "US", "state": "NY", "display_address": ["21 E 16th St", "New York, NY 10003"]}, "phone": "+12129891000", "display_phone": "(212) 989-1000", "distance": 2810.1154146782123}, {"id": "7rxg-tWPc1jK7Cikn5R86g", "alias": "hi-collar-new-york-2", "name": "Hi-Collar", "image_url": "https://s3-media1.fl.yelpcdn.com/bphoto/zAi8_rPGpdGc0V75NE1BSw/o.jpg", "is_closed": false, "url": "https://www.yelp.com/biz/hi-collar-new-york-2?adjust_creative=dGXDlVbzOmyJ2a13MnYdVw&utm_campaign=yelp_api_v3&utm_medium=api_v3_business_search&utm_source=dGXDlVbzOmyJ2a13MnYdVw", "review_count": 802, "categories": [{"alias": "japanese", "title": "Japanese"}, {"alias": "coffee", "title": "Coffee & Tea"}, {"alias": "bars", "title": "Bars"}], "rating": 4.0, "coordinates": {"latitude": 40.729564, "longitude": -73.98786}, "transactions": ["delivery", "pickup"], "price": "$$", "location": {"address1": "231 E 9th St", "address2": "", "address3": "", "city": "New York", "zip_code": "10003", "country": "US", "state": "NY", "display_address": ["231 E 9th St", "New York, NY 10003"]}, "phone": "+12127777018", "display_phone": "(212) 777-7018", "distance": 3498.241677612774}, {"id": "0LRQqNFqK78TcLnPONrGHg", "alias": "yoshino-new-york-3", "name": "Yoshino", "image_url": "https://s3-media3.fl.yelpcdn.com/bphoto/hpIDmlZowsISqiLmIHlvWg/o.jpg", "is_closed": false, "url": "https://www.yelp.com/biz/yoshino-new-york-3?adjust_creative=dGXDlVbzOmyJ2a13MnYdVw&utm_campaign=yelp_api_v3&utm_medium=api_v3_business_search&utm_source=dGXDlVbzOmyJ2a13MnYdVw", "review_count": 36, "categories": [{"alias": "sushi", "title": "Sushi Bars"}], "rating": 4.5, "coordinates": {"latitude": 40.726243, "longitude": -73.992195}, "transactions": [], "location": {"address1": "342 Bowery", "address2": "", "address3": null, "city": "New York", "zip_code": "10012", "country": "US", "state": "NY", "display_address": ["342 Bowery", "New York, NY 10012"]}, "phone": "+19174441988", "display_phone": "(917) 444-1988", "distance": 3950.4857009303255}, {"id": "kesYSgOJW5krU6L8n9qQ4Q", "alias": "ichibantei-new-york", "name": "Ichibantei", "image_url": "https://s3-media2.fl.yelpcdn.com/bphoto/syVfmMRovMpJiPXLs4EUyQ/o.jpg", "is_closed": false, "url": "https://www.yelp.com/biz/ichibantei-new-york?adjust_creative=dGXDlVbzOmyJ2a13MnYdVw&utm_campaign=yelp_api_v3&utm_medium=api_v3_business_search&utm_source=dGXDlVbzOmyJ2a13MnYdVw", "review_count": 297, "categories": [{"alias": "japanese", "title": "Japanese"}, {"alias": "steak", "title": "Steakhouses"}], "rating": 4.0, "coordinates": {"latitude": 40.73259680054533, "longitude": -73.9880024}, "transactions": ["delivery", "pickup"], "price": "$$", "location": {"address1": "100 3rd Ave", "address2": "", "address3": "", "city": "New York", "zip_code": "10003", "country": "US", "state": "NY", "display_address": ["100 3rd Ave", "New York, NY 10003"]}, "phone": "+19179652327", "display_phone": "(917) 965-2327", "distance": 3173.599212911095}, {"id": "Hfq50FEuWpPgc9nXBOO1IA", "alias": "shogun-omakase-new-york-2", "name": "Shogun Omakase", "image_url": "https://s3-media4.fl.yelpcdn.com/bphoto/qjYteYEkrMgb9BAWbEvveg/o.jpg", "is_closed": false, "url": "https://www.yelp.com/biz/shogun-omakase-new-york-2?adjust_creative=dGXDlVbzOmyJ2a13MnYdVw&utm_campaign=yelp_api_v3&utm_medium=api_v3_business_search&utm_source=dGXDlVbzOmyJ2a13MnYdVw", "review_count": 73, "categories": [{"alias": "sushi", "title": "Sushi Bars"}, {"alias": "japanese", "title": "Japanese"}], "rating": 4.5, "coordinates": {"latitude": 40.751676, "longitude": -73.979675}, "transactions": ["delivery", "restaurant_reservation", "pickup"], "location": {"address1": "295 Madison Ave", "address2": "", "address3": null, "city": "New York", "zip_code": "10017", "country": "US", "state": "NY", "display_address": ["295 Madison Ave", "New York, NY 10017"]}, "phone": "+19176757272", "display_phone": "(917) 675-7272", "distance": 979.0018543770784}, {"id": "-dXDKEy3i1DurRFkNPQ5Qg", "alias": "sushiichi-new-york-2", "name": "Sushiichi", "image_url": "https://s3-media2.fl.yelpcdn.com/bphoto/CkRYp5AHh7k7bBEDe68Jvw/o.jpg", "is_closed": false, "url": "https://www.yelp.com/biz/sushiichi-new-york-2?adjust_creative=dGXDlVbzOmyJ2a13MnYdVw&utm_campaign=yelp_api_v3&utm_medium=api_v3_business_search&utm_source=dGXDlVbzOmyJ2a13MnYdVw", "review_count": 22, "categories": [{"alias": "sushi", "title": "Sushi Bars"}, {"alias": "japanese", "title": "Japanese"}, {"alias": "raw_food", "title": "Live/Raw Food"}], "rating": 5.0, "coordinates": {"latitude": 40.761644, "longitude": -73.993648}, "transactions": ["restaurant_reservation"], "location": {"address1": "640 10th Ave", "address2": null, "address3": "", "city": "New York", "zip_code": "10036", "country": "US", "state": "NY", "display_address": ["640 10th Ave", "New York, NY 10036"]}, "phone": "+12125861640", "display_phone": "(212) 586-1640", "distance": 1286.4395925019078}, {"id": "gDcpB3AnhXv9-NUf_3chEA", "alias": "daikanyama-new-york", "name": "Daikanyama", "image_url": "https://s3-media4.fl.yelpcdn.com/bphoto/hMijFA-w39jbGzn2eXCi3w/o.jpg", "is_closed": false, "url": "https://www.yelp.com/biz/daikanyama-new-york?adjust_creative=dGXDlVbzOmyJ2a13MnYdVw&utm_campaign=yelp_api_v3&utm_medium=api_v3_business_search&utm_source=dGXDlVbzOmyJ2a13MnYdVw", "review_count": 33, "categories": [{"alias": "japanese", "title": "Japanese"}], "rating": 4.0, "coordinates": {"latitude": 40.762478, "longitude": -73.967158}, "transactions": ["delivery", "pickup"], "location": {"address1": "1000 3rd Ave", "address2": null, "address3": null, "city": "New York", "zip_code": "10022", "country": "US", "state": "NY", "display_address": ["1000 3rd Ave", "New York, NY 10022"]}, "phone": "+12128371853", "display_phone": "(212) 837-1853", "distance": 987.8755412480075}]